[
 {
  "id": 1,
  "name": "별빛멍냥",
  "address": "전라남도 목포시 옥암동  ",
  "lat": 149701.9761,
  "lng": 145545.8759
 },
 {
  "id": 2,
  "name": "베러멍(Better멍)",
  "address": "전라북도 전주시 덕진구 장동  ",
  "lat": 205748.5484,
  "lng": 260292.7595
 },
 {
  "id": 3,
  "name": "인천 강아지고양이 분양 미유펫",
  "address": "인천광역시 연수구 송도동  주유소 동 층 ",
  "lat": 167258.9499,
  "lng": 432714.3603
 },
 {
  "id": 4,
  "name": "동행동물병원",
  "phone": "053-636-8720",
  "address": "대구광역시 달서구 대천동  월배이타운 ",
  "lat": 337417.7835,
  "lng": 258691.5237
 },
 {
  "id": 5,
  "name": "VERYS(베리스)",
  "address": "부산광역시 부산진구 연지동  ",
  "lat": 387143.1919,
  "lng": 188123.1169
 },
 {
  "id": 6,
  "name": "춘장이네 펫살롱",
  "address": "서울특별시 양천구 신정동  ",
  "lat": 187162.2147,
  "lng": 446879.8535
 },
 {
  "id": 7,
  "name": "몽슈아",
  "address": "서울특별시 동대문구 용두동  광희빌딩 ",
  "lat": 202374.4774,
  "lng": 452856.6545
 },
 {
  "id": 8,
  "name": "비니베니(Biny Beny)",
  "address": "세종특별자치시 대평동  해피라움블루 호",
  "lat": 224567.4898,
  "lng": 330335.4064
 },
 {
  "id": 9,
  "name": "愛nimal(애니멀)",
  "address": "전라남도 장흥군 장흥읍 건산리  ",
  "lat": 191351.9195,
  "lng": 131158.4918
 },
 {
  "id": 10,
  "name": "리움 동물의료센터",
  "address": "경기도 부천시 원종동  유림빌딩 ",
  "lat": 182703.3772,
  "lng": 447436.8485
 },
 {
  "id": 11,
  "name": "퍼피멍멍",
  "phone": "052-245-6990",
  "address": "울산광역시 울주군 범서읍 구영리  ",
  "lat": 403114.6602,
  "lng": 232326.9383
 },
 {
  "id": 12,
  "name": "단정하개 애견미용실",
  "address": "대전광역시 서구 복수동  수정빌딩 호",
  "lat": 233878.8179,
  "lng": 311169.8904
 },
 {
  "id": 13,
  "name": "안녕, 멍멍",
  "address": "인천광역시 서구 청라동  청라한신더휴커낼웨이 ",
  "lat": 168769.9608,
  "lng": 447843.9148
 },
 {
  "id": 14,
  "name": "멍",
  "address": "서울특별시 도봉구 창동  ",
  "lat": 203339.7023,
  "lng": 459789.8966
 },
 {
  "id": 16,
  "name": "위너",
  "address": "경상남도 창녕군 대지면 효정리  ",
  "lat": 334742.4377,
  "lng": 228243.345
 },
 {
  "id": 17,
  "name": "멍멍미용실",
  "address": "인천광역시 동구 송현동  솔빛마을 주공차아파트 ",
  "lat": 167823.6319,
  "lng": 442139.5925
 },
 {
  "id": 18,
  "name": "몽쥬르",
  "address": "대구광역시 달서구 도원동  ",
  "lat": 338688.2339,
  "lng": 257464.8946
 },
 {
  "id": 19,
  "name": "싹독",
  "address": "전라북도 익산시 어양동  하우스가든 ",
  "lat": 198369.8462,
  "lng": 273255.9451
 },
 {
  "id": 20,
  "name": "스퀘어에듀센터",
  "phone": "1899-7743",
  "address": "인천광역시 서구 청라동  ",
  "lat": 169982.0158,
  "lng": 447700.1476
 },
 {
  "id": 21,
  "name": "도그도그샵",
  "address": "대구광역시 수성구 만촌동  층 ",
  "lat": 348843.1269,
  "lng": 263138.4166
 },
 {
  "id": 22,
  "name": "메모리멍",
  "address": "서울특별시 동작구 신대방동  ",
  "lat": 192120.824,
  "lng": 442870.0901
 },
 {
  "id": 23,
  "name": "애니멀데이",
  "address": "충청북도 청주시 상당구 금천동  호",
  "lat": 245066.5017,
  "lng": 347596.6776
 },
 {
  "id": 24,
  "name": "이니펫",
  "address": "세종특별자치시 도담동  도램마을단지 ",
  "lat": 223699.2176,
  "lng": 334837.2765
 },
 {
  "id": 25,
  "name": "베베캣",
  "address": "경상남도 창원시 마산합포구 서성동  ",
  "lat": 342736.4689,
  "lng": 190376.1771
 },
 {
  "id": 26,
  "name": "로리네",
  "address": "경상북도 포항시 남구 효자동  ",
  "lat": 411151.4838,
  "lng": 281044.1009
 },
 {
  "id": 27,
  "name": "또또살롱",
  "address": "경상북도 포항시 북구 장성동  호",
  "lat": 414683.3753,
  "lng": 289288.5362
 },
 {
  "id": 28,
  "name": "코지펫",
  "address": "전라남도 무안군 삼향읍 남악리  주영빌라 ",
  "lat": 151819.3851,
  "lng": 145754.0834
 },
 {
  "id": 29,
  "name": "펫더헤븐",
  "address": "울산광역시 남구 달동  롯데마트울산점 ",
  "lat": 409970.3908,
  "lng": 228450.8647
 },
 {
  "id": 31,
  "name": "속초애견 더 이쁘개",
  "address": "강원도 속초시 교동  미소지움 더뷰 아파트 ",
  "lat": 338146.2265,
  "lng": 522918.3403
 },
 {
  "id": 32,
  "name": "쉼표 애견미용",
  "address": "경기도 남양주시 화도읍 마석우리  시인의정원 제차, 지하층 호",
  "lat": 227269.5701,
  "lng": 461263.9466
 },
 {
  "id": 33,
  "name": "깡지하우스",
  "address": "광주광역시 북구 본촌동  단원빌딩 호",
  "lat": 189002.8907,
  "lng": 191126.6656
 },
 {
  "id": 34,
  "name": "하찌몽",
  "address": "서울특별시 은평구 신사동  ",
  "lat": 192196.0114,
  "lng": 454596.1473
 },
 {
  "id": 35,
  "name": "애견백화점 동탄점",
  "address": "경기도 화성시 오산동  ",
  "lat": 208624.9361,
  "lng": 411151.9484
 },
 {
  "id": 36,
  "name": "단골가개",
  "address": "경상남도 김해시 관동동  호",
  "lat": 365299.3655,
  "lng": 187837.2786
 },
 {
  "id": 37,
  "name": "쉐이크테일 애견미용 살롱",
  "address": "경기도 평택시 비전동  트러스트원 빌딩 층 호",
  "lat": 210100.851,
  "lng": 388775.1884
 },
 {
  "id": 38,
  "name": "안녕,고양이",
  "address": "경기도 부천시 상동  굿모닝오피스텔 ",
  "lat": 177750.0789,
  "lng": 444830.6218
 },
 {
  "id": 39,
  "name": "아지트독 강아지분양 인천본점",
  "phone": "433-9605",
  "address": "인천광역시 남동구 논현동  ",
  "lat": 175644.5321,
  "lng": 433636.4912
 },
 {
  "id": 40,
  "name": "멍 스타일",
  "phone": "02-941-1072",
  "address": "서울특별시 성북구 하월곡동  상가동 호",
  "lat": 202667.4688,
  "lng": 455858.9208
 },
 {
  "id": 41,
  "name": "컴온독",
  "phone": "053-436-3337",
  "address": "경상북도 김천시 신음동  ",
  "lat": 300461.3123,
  "lng": 293428.0183
 },
 {
  "id": 42,
  "name": "뭉난이",
  "address": "충청남도 천안시 동남구 청당동  ",
  "lat": 214204.0005,
  "lng": 364755.6364
 },
 {
  "id": 43,
  "name": "올랑",
  "address": "경기도 안산시 상록구 이동  캠퍼스타운 ",
  "lat": 186845.4988,
  "lng": 422950.3313
 },
 {
  "id": 44,
  "name": "프렌즈도그 미용실 광주 서구점",
  "phone": "062-371-3201",
  "address": "광주광역시 서구 쌍촌동  ",
  "lat": 186595.8769,
  "lng": 183073.3651
 },
 {
  "id": 45,
  "name": "리베동물메디컬센터",
  "phone": "02-6953-7502",
  "address": "서울특별시 송파구 삼전동  헬릭스빌딩 ",
  "lat": 207700.7777,
  "lng": 444619.911
 },
 {
  "id": 46,
  "name": "꽃냥이네",
  "address": "서울특별시 은평구 대조동  ",
  "lat": 193008.2107,
  "lng": 456914.5135
 },
 {
  "id": 47,
  "name": "헤이베베",
  "address": "제주특별자치도 제주시 이도이동  ",
  "lat": 157219.2907,
  "lng": 186.2467587
 },
 {
  "id": 48,
  "name": "뽀송강아지",
  "address": "전라남도 구례군 구례읍 봉동리  ",
  "lat": 242214.4179,
  "lng": 190164.4849
 },
 {
  "id": 49,
  "name": "스마일댕댕",
  "address": "전라남도 순천시 해룡면 상삼리  정원에코힐 상가동 호",
  "lat": 248313.8122,
  "lng": 161054.9169
 },
 {
  "id": 50,
  "name": "도그마루 강아지 고양이 광주점",
  "address": "광주광역시 광산구 수완동  ",
  "lat": 184043.7992,
  "lng": 187995.1319
 },
 {
  "id": 51,
  "name": "우댕샵",
  "address": "서울특별시 강동구 길동  ",
  "lat": 212332.0423,
  "lng": 448226.6673
 },
 {
  "id": 52,
  "name": "퍼피파우더룸",
  "address": "서울특별시 송파구 잠실동  리센츠 ",
  "lat": 207624.4247,
  "lng": 445533.4396
 },
 {
  "id": 53,
  "name": "나라애견",
  "address": "경상북도 포항시 북구 양덕동  호",
  "lat": 415791.4866,
  "lng": 289811.3746
 },
 {
  "id": 54,
  "name": "플레이독 파주본점",
  "address": "경기도 파주시 신촌동  ",
  "lat": 174305.1097,
  "lng": 470009.0008
 },
 {
  "id": 55,
  "name": "Otter(오터)",
  "address": "경기도 의정부시 신곡동  현대차아파트 ",
  "lat": 204820.6677,
  "lng": 469497.8503
 },
 {
  "id": 56,
  "name": "박준애견호텔강아지목욕대형견호텔애견유치원",
  "address": "경기도 수원시 팔달구 인계동  LD그린토피아 ",
  "lat": 202746.9544,
  "lng": 417367.54
 },
 {
  "id": 57,
  "name": "꿀물하우스",
  "address": "울산광역시 울주군 온양읍 대안리  ",
  "lat": 407818.9095,
  "lng": 214384.7991
 },
 {
  "id": 58,
  "name": "댕플래닛",
  "address": "광주광역시 북구 운암동  외 필지 ",
  "lat": 189184.9976,
  "lng": 186286.5659
 },
 {
  "id": 59,
  "name": "멍블링",
  "address": "인천광역시 미추홀구 학익동  ",
  "lat": 169169.8738,
  "lng": 438068.2046
 },
 {
  "id": 60,
  "name": "프리티멍",
  "address": "경기도 김포시 구래동  ",
  "lat": 167517.5407,
  "lng": 460973.6303
 },
 {
  "id": 61,
  "name": "그루아미",
  "address": "울산광역시 동구 화정동  ",
  "lat": 419581.7717,
  "lng": 224758.3313
 },
 {
  "id": 62,
  "name": "수밍펫",
  "address": "대전광역시 중구 중촌동  ",
  "lat": 236832.3201,
  "lng": 315482.3437
 },
 {
  "id": 63,
  "name": "도그미용실",
  "address": "대구광역시 수성구 신매동  층 ",
  "lat": 353957.9207,
  "lng": 260560.4922
 },
 {
  "id": 64,
  "name": "한솔동물병원",
  "address": "경상남도 창원시 진해구 석동  ",
  "lat": 355229.1672,
  "lng": 185010.0007
 },
 {
  "id": 65,
  "name": "미소애견 미용실",
  "address": "울산광역시 북구 신천동  ",
  "lat": 412644.2504,
  "lng": 239844.2664
 },
 {
  "id": 66,
  "name": "푸르뎅 뷰티살롱",
  "address": "경상남도 거제시 상동동  ",
  "lat": 348949.8504,
  "lng": 154175.2469
 },
 {
  "id": 67,
  "name": "댕댕댕",
  "address": "경상남도 진주시 칠암동  층 ",
  "lat": 299213.9326,
  "lng": 188145.4747
 },
 {
  "id": 68,
  "name": "털좀밀개",
  "address": "경기도 남양주시 호평동  호평 파라곤 ",
  "lat": 221891.8139,
  "lng": 463114.0887
 },
 {
  "id": 69,
  "name": "Mong's(몽'스)",
  "address": "경기도 고양시 일산동구 장항동  엠시티타워&엠시티오피스텔 호",
  "lat": 179708.8263,
  "lng": 461404.8039
 },
 {
  "id": 70,
  "name": "멍멍이샵",
  "phone": "051-255-7188",
  "address": "부산광역시 사하구 장림동  ",
  "lat": 380245.7236,
  "lng": 177636.4374
 },
 {
  "id": 71,
  "name": "파마네 Dog Salon",
  "address": "서울특별시 양천구 목동  ",
  "lat": 188751.6307,
  "lng": 446749.4448
 },
 {
  "id": 72,
  "name": "개거품그루밍",
  "address": "경기도 남양주시 다산동  ",
  "lat": 213343.5344,
  "lng": 457795.951
 },
 {
  "id": 73,
  "name": "댕카 미용실",
  "address": "인천광역시 미추홀구 주안동  ",
  "lat": 171742.5492,
  "lng": 439993.7222
 },
 {
  "id": 74,
  "name": "486DOG SCHOOL",
  "address": "부산광역시 사상구 모라동  ",
  "lat": 381501.9862,
  "lng": 189120.1795
 },
 {
  "id": 75,
  "name": "만두네 애견미용실",
  "address": "서울특별시 도봉구 창동  ",
  "lat": 203028.0965,
  "lng": 460011.8611
 },
 {
  "id": 76,
  "name": "코코 살롱",
  "address": "충청남도 당진시 대덕동  당진신문(주) ",
  "lat": 167603.6647,
  "lng": 376209.1841
 },
 {
  "id": 77,
  "name": "강아지마을 살롱읍",
  "address": "경기도 평택시 고덕동  ",
  "lat": 204135.079,
  "lng": 394203.472
 },
 {
  "id": 78,
  "name": "청려원 반려동물 센터",
  "phone": "031-242-2076",
  "address": "경기도 수원시 팔달구 중동  ",
  "lat": 201349.5555,
  "lng": 419240.4916
 },
 {
  "id": 79,
  "name": "독특",
  "address": "인천광역시 미추홀구 숭의동  스타디움 센트럴시티 ",
  "lat": 168471.5447,
  "lng": 440548.1541
 },
 {
  "id": 80,
  "name": "그루밍 아뜰리에",
  "address": "대구광역시 수성구 범어동  ",
  "lat": 347397.6446,
  "lng": 264220.8759
 },
 {
  "id": 81,
  "name": "펫돌봄(돌봄컴퍼니)",
  "phone": "043-212-7516",
  "address": "충청북도 청주시 청원구 율량동  ",
  "lat": 244348.5173,
  "lng": 351680.3682
 },
 {
  "id": 82,
  "name": "개식구",
  "address": "충청남도 당진시 읍내동  럭스타운 ",
  "lat": 167557.289,
  "lng": 376480.9555
 },
 {
  "id": 83,
  "name": "미르동물병원",
  "phone": "055-912-0957",
  "address": "경상남도 양산시 동면 석산리  ",
  "lat": 384084.8178,
  "lng": 203597.1789
 },
 {
  "id": 84,
  "name": "몽키매직",
  "address": "경상북도 포항시 남구 구룡포읍 구룡포리  층 ",
  "lat": 430111.0951,
  "lng": 279572.3705
 },
 {
  "id": 85,
  "name": "베베도그",
  "address": "전라남도 광양시 중동  ",
  "lat": 262877.0326,
  "lng": 161554.6964
 },
 {
  "id": 86,
  "name": "신사독 애견미용 용인광교점",
  "address": "경기도 용인시 수지구 상현동  ,호 ",
  "lat": 206483.7697,
  "lng": 421765.1286
 },
 {
  "id": 87,
  "name": "바르다펫(대구범어점)",
  "address": "대구광역시 수성구 범어동  범어에일린의뜰 상가동 지하층 호 ",
  "lat": 346451.5298,
  "lng": 262564.1856
 },
 {
  "id": 88,
  "name": "티나DOG",
  "address": "서울특별시 마포구 상암동  상암근린상가 ",
  "lat": 189392.976,
  "lng": 453114.7325
 },
 {
  "id": 89,
  "name": "아띠펫",
  "address": "서울특별시 노원구 하계동  웅천종합상가 ",
  "lat": 206202.8532,
  "lng": 458984.511
 },
 {
  "id": 90,
  "name": "조항일동물병원",
  "address": "경상남도 창원시 진해구 석동  화남빌딩 ",
  "lat": 354681.4509,
  "lng": 185822.1068
 },
 {
  "id": 91,
  "name": "OK동물병원",
  "address": "경상남도 창원시 진해구 여좌동  OK동물병원 ",
  "lat": 351907.9453,
  "lng": 184949.0887
 },
 {
  "id": 92,
  "name": "야옹아멍멍해봐 김포운양점",
  "phone": "070-8861-4286",
  "address": "경기도 김포시 운양동  ",
  "lat": 170842.5445,
  "lng": 461411.5125
 },
 {
  "id": 93,
  "name": "포포동물병원",
  "phone": "02-922-7555",
  "address": "서울특별시 성북구 보문동가  층 ",
  "lat": 201873.0764,
  "lng": 453075.56
 },
 {
  "id": 94,
  "name": "디어펫",
  "address": "제주특별자치도 제주시 연동  ",
  "lat": 152364.2175,
  "lng": -2089.231388
 },
 {
  "id": 95,
  "name": "꼬리별",
  "address": "경상남도 거제시 상동동  대동다숲아파트 ",
  "lat": 348947.2776,
  "lng": 153395.3033
 },
 {
  "id": 96,
  "name": "댕댕이 치장실",
  "address": "전라북도 익산시 마동  코아루디펠리체 상가 ",
  "lat": 196683.6864,
  "lng": 271748.2326
 },
 {
  "id": 97,
  "name": "살롱드 베베",
  "address": "대구광역시 수성구 만촌동  층 ",
  "lat": 348411.2727,
  "lng": 264179.0114
 },
 {
  "id": 98,
  "name": "유 앤 독",
  "phone": "02-2661-2366",
  "address": "서울특별시 강서구 공항동  ",
  "lat": 183340.097,
  "lng": 451306.1576
 },
 {
  "id": 99,
  "name": "알콩",
  "address": "경기도 화성시 산척동  그린힐 반도유보라 아이비파크  ",
  "lat": 211493.8514,
  "lng": 407252.3609
 },
 {
  "id": 100,
  "name": "스마일댕",
  "phone": "070-7770-4544",
  "address": "경기도 화성시 반월동  ",
  "lat": 205808.8136,
  "lng": 414663.1029
 },
 {
  "id": 101,
  "name": "토이켄넬(Toy kennel)",
  "phone": "061-810-2080",
  "address": "전라남도 여수시 웅천동  여수베이원파크 ",
  "lat": 261661.7577,
  "lng": 138494.6047
 },
 {
  "id": 102,
  "name": "푸들푸들",
  "address": "경기도 이천시 중리동  ",
  "lat": 239444.033,
  "lng": 419655.7271
 },
 {
  "id": 103,
  "name": "샤멍샤멍",
  "address": "경기도 의정부시 가능동  ",
  "lat": 202810.0535,
  "lng": 472560.1497
 },
 {
  "id": 104,
  "name": "소금소금 펫살롱",
  "address": "울산광역시 북구 천곡동  ",
  "lat": 409789.7495,
  "lng": 241457.0984
 },
 {
  "id": 105,
  "name": "도담도담펫살롱",
  "address": "인천광역시 미추홀구 주안동  롯데하이텔 ",
  "lat": 171492.7872,
  "lng": 439802.0676
 },
 {
  "id": 106,
  "name": "올댓퍼피(ALL THAT PUPPY)",
  "address": "서울특별시 영등포구 신길동  디에스타운 ",
  "lat": 193116.846,
  "lng": 445411.5458
 },
 {
  "id": 107,
  "name": "퍼피루미 강아지분양 애견샵 양주옥정점",
  "address": "경기도 양주시 옥정동  ",
  "lat": 208399.3499,
  "lng": 479858.2739
 },
 {
  "id": 108,
  "name": "개중목욕탕",
  "address": "강원도 춘천시 석사동  ",
  "lat": 266261.56,
  "lng": 485011.8421
 },
 {
  "id": 109,
  "name": "퍼쉬퍼피",
  "address": "인천광역시 서구 청라동  ",
  "lat": 168225.29,
  "lng": 447529.34
 },
 {
  "id": 110,
  "name": "꼬멍쓰멍",
  "address": "부산광역시 연제구 연산동  연산동한일유앤아이아파트 ",
  "lat": 390132.4576,
  "lng": 189040.8508
 },
 {
  "id": 111,
  "name": "이쁘댕",
  "address": "경기도 김포시 사우동  ",
  "lat": 174706.9953,
  "lng": 457451.5572
 },
 {
  "id": 112,
  "name": "멍스럽",
  "address": "경기도 김포시 감정동  김포 센트럴 헤센 단지 ",
  "lat": 173766.9343,
  "lng": 457167.7952
 },
 {
  "id": 113,
  "name": "도그랑 n 메인독",
  "address": "경기도 고양시 일산동구 장항동  크리스탈빌딩 호",
  "lat": 179528.8256,
  "lng": 461958.8233
 },
 {
  "id": 114,
  "name": "댕가댕가",
  "address": "인천광역시 연수구 송도동  송도SK뷰센트럴 근린생활시설동 호",
  "lat": 167996.6764,
  "lng": 431133.178
 },
 {
  "id": 115,
  "name": "개안네",
  "address": "부산광역시 동래구 사직동  ",
  "lat": 389114.6363,
  "lng": 191212.1636
 },
 {
  "id": 116,
  "name": "디자인바이펫",
  "address": "서울특별시 송파구 석촌동  ",
  "lat": 208872.6146,
  "lng": 444481.7787
 },
 {
  "id": 117,
  "name": "유니독",
  "address": "서울특별시 영등포구 영등포동  ",
  "lat": 192008.8283,
  "lng": 445656.3542
 },
 {
  "id": 118,
  "name": "사계절 예쁘개",
  "address": "전라남도 영암군 삼호읍 용앙리  ",
  "lat": 151953.1943,
  "lng": 138706.5172
 },
 {
  "id": 119,
  "name": "펫미용",
  "address": "강원도 원주시 평원동  ",
  "lat": 284362.4911,
  "lng": 428090.6625
 },
 {
  "id": 120,
  "name": "쫑랑쫑랑",
  "address": "경기도 고양시 덕양구 신원동  호",
  "lat": 190157.5887,
  "lng": 462146.9733
 },
 {
  "id": 121,
  "name": "네오펫",
  "phone": "070-4468-2120",
  "address": "경기도 안양시 동안구 관양동  대한스마트타워 ",
  "lat": 196877.2323,
  "lng": 432687.6358
 },
 {
  "id": 122,
  "name": "네오펫",
  "phone": "070-4468-2120",
  "address": "경기도 안양시 동안구 관양동  대한스마트타워 ",
  "lat": 196877.2323,
  "lng": 432687.6358
 },
 {
  "id": 123,
  "name": "환해지개",
  "address": "대전광역시 서구 둔산동  ",
  "lat": 235694.8437,
  "lng": 316601.8954
 },
 {
  "id": 124,
  "name": "바비숑펫살롱",
  "address": "광주광역시 남구 주월동  층 ",
  "lat": 190315.2533,
  "lng": 181669.3914
 },
 {
  "id": 125,
  "name": "아라애견",
  "phone": "043-421-5070",
  "address": "충청북도 단양군 가곡면 덕천리  ",
  "lat": 321551.8398,
  "lng": 390220.5062
 },
 {
  "id": 126,
  "name": "유 시저링",
  "address": "광주광역시 광산구 신창동  ",
  "lat": 185712.9946,
  "lng": 188026.105
 },
 {
  "id": 127,
  "name": "댕댕이 이발소",
  "address": "대구광역시 달서구 이곡동  ",
  "lat": 336299.5738,
  "lng": 262917.4948
 },
 {
  "id": 128,
  "name": "왔숑",
  "address": "부산광역시 강서구 명지동  ",
  "lat": 374253.1123,
  "lng": 178757.4233
 },
 {
  "id": 129,
  "name": "꽁냥꽁냥",
  "address": "부산광역시 사하구 하단동  ",
  "lat": 379787.1743,
  "lng": 179961.16
 },
 {
  "id": 130,
  "name": "탱스땡스",
  "address": "경상남도 창원시 마산합포구 교방동  ",
  "lat": 342356.7059,
  "lng": 191666.8909
 },
 {
  "id": 131,
  "name": "욜로멍",
  "address": "경상남도 창원시 마산회원구 양덕동  ",
  "lat": 344042.6826,
  "lng": 193385.5142
 },
 {
  "id": 132,
  "name": "뽀독뽀독",
  "address": "전라남도 광양시 마동  ",
  "lat": 263435.5979,
  "lng": 161800.6751
 },
 {
  "id": 133,
  "name": "뽀독뽀독",
  "address": "전라남도 광양시 마동  ",
  "lat": 263435.5979,
  "lng": 161800.6751
 },
 {
  "id": 134,
  "name": "어니얼리",
  "address": "전라북도 정읍시 수성동  ",
  "lat": 186492.5062,
  "lng": 231009.912
 },
 {
  "id": 135,
  "name": "댕바이미",
  "address": "강원도 춘천시 퇴계동  ",
  "lat": 264068.6857,
  "lng": 484318.8692
 },
 {
  "id": 136,
  "name": "견사무소 애견미용실",
  "address": "경기도 용인시 기흥구 보라동  번영골재 ",
  "lat": 209083.3399,
  "lng": 417591.1952
 },
 {
  "id": 137,
  "name": "몽그라미",
  "address": "대전광역시 유성구 봉명동  ",
  "lat": 230270.9056,
  "lng": 316871.2643
 },
 {
  "id": 138,
  "name": "오킨더",
  "phone": "0507-1359-2745",
  "address": "부산광역시 수영구 광안동  ",
  "lat": 392930.1459,
  "lng": 187172.6295
 },
 {
  "id": 139,
  "name": "사랑이네",
  "address": "경기도 이천시 대월면 사동리  ",
  "lat": 243854.5705,
  "lng": 415844.4679
 },
 {
  "id": 140,
  "name": "이쁘냥",
  "address": "경기도 고양시 일산동구 마두동  층 ",
  "lat": 181158.8661,
  "lng": 462247.0173
 },
 {
  "id": 141,
  "name": "장보는 강아지와 고양이",
  "address": "경기도 평택시 신장동  ",
  "lat": 204651.4865,
  "lng": 398652.7566
 },
 {
  "id": 142,
  "name": "댕린이집",
  "address": "경기도 평택시 안중읍 안중리  층 ",
  "lat": 193544.5205,
  "lng": 387263.1845
 },
 {
  "id": 143,
  "name": "멍머니살롱",
  "address": "인천광역시 연수구 청학동  층 호",
  "lat": 171206.6561,
  "lng": 435077.8553
 },
 {
  "id": 144,
  "name": "솔리뉴(Solynue)&휴즈마인(Huge Mine)",
  "address": "경기도 여주시 세종대왕면 광대리  (제동) ",
  "lat": 251323.0403,
  "lng": 418058.6388
 },
 {
  "id": 145,
  "name": "아띠댕댕",
  "address": "경기도 양주시 백석읍 가업리  ",
  "lat": 197389.0631,
  "lng": 476151.438
 },
 {
  "id": 146,
  "name": "헤이라딘",
  "address": "충청남도 논산시 강경읍 대흥리  ",
  "lat": 201197.6133,
  "lng": 295185.3683
 },
 {
  "id": 147,
  "name": "오늘도, 귀엽개",
  "address": "강원도 홍천군 홍천읍 희망리  ",
  "lat": 278097.5006,
  "lng": 466073.4002
 },
 {
  "id": 148,
  "name": "중산동물메디컬센터",
  "phone": "031-976-8939",
  "address": "경기도 고양시 일산서구 일산동  ,층 ",
  "lat": 180284.9852,
  "lng": 464853.379
 },
 {
  "id": 149,
  "name": "따뜻하개",
  "address": "서울특별시 관악구 신림동  ",
  "lat": 193648.9611,
  "lng": 441848.949
 },
 {
  "id": 150,
  "name": "오마이독",
  "address": "서울특별시 마포구 연남동  ",
  "lat": 193009.8847,
  "lng": 451471.8757
 },
 {
  "id": 151,
  "name": "멍세권",
  "address": "충청북도 청주시 상당구 운동동  ",
  "lat": 247238.2008,
  "lng": 345236.5836
 },
 {
  "id": 152,
  "name": "해피애견호텔",
  "address": "경상남도 창원시 의창구 북면 감계리  ",
  "lat": 344505.463,
  "lng": 201441.8878
 },
 {
  "id": 153,
  "name": "이안동물의료센터",
  "address": "경상남도 진주시 강남동  층 ",
  "lat": 299279.5748,
  "lng": 187198.6292
 },
 {
  "id": 154,
  "name": "애견마을",
  "phone": "031-212-5079",
  "address": "경기도 수원시 영통구 매탄동  ",
  "lat": 203682.4202,
  "lng": 417415.555
 },
 {
  "id": 155,
  "name": "개좋다냥",
  "address": "전라남도 순천시 조례동  ",
  "lat": 248837.3578,
  "lng": 162109.6084
 },
 {
  "id": 156,
  "name": "아가단 펫 살롱",
  "address": "광주광역시 광산구 운남동  ",
  "lat": 184039.9418,
  "lng": 186191.1541
 },
 {
  "id": 157,
  "name": "ARBOL 385",
  "address": "대구광역시 동구 지묘동  파크뷰 ",
  "lat": 346926.4427,
  "lng": 272549.3593
 },
 {
  "id": 158,
  "name": "퍼피&피쉬",
  "address": "전라남도 광양시 중동  무등파크맨션 ",
  "lat": 262939.3093,
  "lng": 160937.8519
 },
 {
  "id": 159,
  "name": "스프링댕댕",
  "address": "전라남도 광양시 광양읍 구산리  ",
  "lat": 252617.5372,
  "lng": 164555.7005
 },
 {
  "id": 160,
  "name": "벤디그루밍",
  "address": "경기도 파주시 목동동  ",
  "lat": 177617.1449,
  "lng": 469930.6824
 },
 {
  "id": 161,
  "name": "메리펫샵",
  "address": "광주광역시 동구 계림동  그랜드센트럴 ",
  "lat": 192224.041,
  "lng": 184210.312
 },
 {
  "id": 162,
  "name": "댕묭실",
  "address": "부산광역시 북구 구포동  ",
  "lat": 381622.2048,
  "lng": 191007.8666
 },
 {
  "id": 163,
  "name": "프로펫 애견 미용실",
  "address": "경기도 시흥시 거모동  ",
  "lat": 180816.5633,
  "lng": 426421.2964
 },
 {
  "id": 164,
  "name": "furson",
  "address": "대구광역시 중구 동인동가  ",
  "lat": 345499.0552,
  "lng": 264360.8199
 },
 {
  "id": 165,
  "name": "살랑 그루밍",
  "address": "서울특별시 은평구 진관동  은평뉴타운우물골 동 B호",
  "lat": 193541.7486,
  "lng": 459318.4048
 },
 {
  "id": 166,
  "name": "고양이 발바닥",
  "address": "충청북도 청주시 상당구 용암동  ",
  "lat": 245158.1415,
  "lng": 346225.3831
 },
 {
  "id": 167,
  "name": "곤지암",
  "address": "경기도 광주시 곤지암읍 삼리  ",
  "lat": 229322.0735,
  "lng": 427981.2926
 },
 {
  "id": 168,
  "name": "덕구살롱",
  "address": "충청북도 충주시 교현동  ",
  "lat": 282555.01,
  "lng": 387338.7072
 },
 {
  "id": 169,
  "name": "mignon",
  "address": "경기도 시흥시 신천동  ",
  "lat": 180782.6447,
  "lng": 437471.161
 },
 {
  "id": 170,
  "name": "해피하개 애견샵",
  "address": "대구광역시 달성군 다사읍 죽곡리  죽곡 한신 휴플러스 상가동 호",
  "lat": 332178.5912,
  "lng": 262352.5696
 },
 {
  "id": 171,
  "name": "꽃단장 하개",
  "address": "경상남도 양산시 동면 석산리  ",
  "lat": 384354.3922,
  "lng": 203901.901
 },
 {
  "id": 172,
  "name": "지니펫",
  "address": "경상남도 거제시 아주동  ",
  "lat": 354341.2699,
  "lng": 153064.2231
 },
 {
  "id": 173,
  "name": "가치있개",
  "address": "서울특별시 관악구 봉천동  ",
  "lat": 193924.0734,
  "lng": 442902.3274
 },
 {
  "id": 174,
  "name": "오후독",
  "address": "광주광역시 광산구 월계동  ",
  "lat": 184758.7977,
  "lng": 190219.2482
 },
 {
  "id": 175,
  "name": "디그루밍",
  "address": "인천광역시 서구 왕길동  ",
  "lat": 169281.0393,
  "lng": 455565.8311
 },
 {
  "id": 176,
  "name": "콩순이네 애견샵",
  "address": "인천광역시 중구 답동  ",
  "lat": 167209.9268,
  "lng": 440790.5409
 },
 {
  "id": 177,
  "name": "트리트멍트",
  "address": "서울특별시 중랑구 면목동  오라음악학원 ",
  "lat": 207203.2634,
  "lng": 454246.0539
 },
 {
  "id": 178,
  "name": "파트라슈",
  "address": "경상남도 통영시 광도면 죽림리  죽림신우희가로 동 호",
  "lat": 329638.1977,
  "lng": 155331.454
 },
 {
  "id": 179,
  "name": "콩피에르(confier)",
  "address": "전라북도 전주시 완산구 효자동가  새마을금고 ",
  "lat": 209598.6661,
  "lng": 256701.805
 },
 {
  "id": 180,
  "name": "멍하개",
  "address": "전라북도 전주시 완산구 효자동가  ",
  "lat": 209866.3154,
  "lng": 257507.115
 },
 {
  "id": 181,
  "name": "레오마켓",
  "phone": "031-817-6709",
  "address": "경기도 고양시 일산서구 탄현동  층 ",
  "lat": 179941.7056,
  "lng": 465665.1829
 },
 {
  "id": 182,
  "name": "이리온 PET",
  "address": "경기도 평택시 비전동  ",
  "lat": 208988.7481,
  "lng": 389353.1883
 },
 {
  "id": 183,
  "name": "슈퍼퍼피",
  "address": "광주광역시 광산구 수완동  ",
  "lat": 184401.1678,
  "lng": 187513.0788
 },
 {
  "id": 184,
  "name": "리브독(LeavDog)",
  "phone": "02-2607-4409",
  "address": "서울특별시 양천구 신월동  ",
  "lat": 185170.7912,
  "lng": 447484.8019
 },
 {
  "id": 185,
  "name": "샤이멍",
  "address": "경상남도 창원시 의창구 북면 감계리  창원 감계 푸르지오 제상가 동 호",
  "lat": 344132.3136,
  "lng": 201299.0046
 },
 {
  "id": 186,
  "name": "선샤인퍼피",
  "address": "경상남도 진주시 가좌동  더퍼스트웰가시티 ",
  "lat": 301656.1526,
  "lng": 184217.2273
 },
 {
  "id": 187,
  "name": "스타펫",
  "address": "전라남도 여수시 여서동  ",
  "lat": 264461.7556,
  "lng": 139503.6641
 },
 {
  "id": 188,
  "name": "라라몽",
  "address": "경기도 용인시 기흥구 보라동  용인보라 효성해링턴플레이스 ",
  "lat": 210122.1236,
  "lng": 416930.9465
 },
 {
  "id": 189,
  "name": "냥냥",
  "address": "인천광역시 부평구 부개동  층 ",
  "lat": 177088.0677,
  "lng": 443489.8628
 },
 {
  "id": 190,
  "name": "개미남",
  "address": "제주특별자치도 제주시 아라일동  ",
  "lat": 156983.6323,
  "lng": -1389.466207
 },
 {
  "id": 191,
  "name": "해뜨는댕",
  "address": "경기도 양주시 옥정동  ",
  "lat": 208211.5694,
  "lng": 479559.8941
 },
 {
  "id": 192,
  "name": "빵실빵실",
  "address": "전라남도 순천시 왕지동  ",
  "lat": 247986.017,
  "lng": 163465.3258
 },
 {
  "id": 193,
  "name": "조아펫",
  "address": "경기도 김포시 장기동  한강호반베르디움 ",
  "lat": 169900.5757,
  "lng": 460481.2479
 },
 {
  "id": 194,
  "name": "댕이쌀롱",
  "address": "대구광역시 달서구 상인동  ",
  "lat": 338839.5136,
  "lng": 257884.5063
 },
 {
  "id": 195,
  "name": "개모임애견샵",
  "address": "경상남도 창원시 마산합포구 현동  ",
  "lat": 341946.2873,
  "lng": 184186.6865
 },
 {
  "id": 196,
  "name": "핸즈독스쿨",
  "address": "경상남도 양산시 물금읍 가촌리  ",
  "lat": 381938.0397,
  "lng": 203868.4132
 },
 {
  "id": 197,
  "name": "애견미용실 일호",
  "phone": "063-322-0015",
  "address": "전라북도 무주군 무주읍 읍내리  ",
  "lat": 259124.286,
  "lng": 278573.5186
 },
 {
  "id": 198,
  "name": "잔다냥 천안점",
  "address": "충청남도 천안시 동남구 청수동  ",
  "lat": 213782.6726,
  "lng": 365313.9538
 },
 {
  "id": 199,
  "name": "dogsalon momoko 도그살롱 모모코",
  "address": "경기도 용인시 기흥구 중동  라비스타 ",
  "lat": 212759.0841,
  "lng": 419340.1934
 },
 {
  "id": 200,
  "name": "더도그홈",
  "address": "경기도 고양시 덕양구 용두동  ",
  "lat": 190256.3931,
  "lng": 458402.3849
 },
 {
  "id": 201,
  "name": "운버트 강아지미용실",
  "address": "서울특별시 강동구 암사동  한강현대아파트 ",
  "lat": 211587.3283,
  "lng": 450334.3874
 },
 {
  "id": 202,
  "name": "댕댕이살롱",
  "phone": "02-2061-9912",
  "address": "서울특별시 양천구 신정동  ",
  "lat": 187359.7517,
  "lng": 446561.3578
 },
 {
  "id": 203,
  "name": "댕댕이 미용살롱",
  "address": "전라북도 전주시 완산구 중화산동가  전주기전대학 ",
  "lat": 212172.9115,
  "lng": 257499.2474
 },
 {
  "id": 204,
  "name": "오늘도, 아름답개",
  "address": "충청남도 아산시 배방읍 북수리  ",
  "lat": 206499.2082,
  "lng": 363216.937
 },
 {
  "id": 205,
  "name": "루비반지 PET SHOP 우두점",
  "address": "강원도 춘천시 우두동  ",
  "lat": 264798.0759,
  "lng": 489729.9085
 },
 {
  "id": 206,
  "name": "(주)이마트 대전터미널점 몰리스샵",
  "phone": "042-615-1234",
  "address": "대전광역시 동구 용전동  대전복합터미널(서관) ",
  "lat": 239122.6384,
  "lng": 316705.6937
 },
 {
  "id": 207,
  "name": "멜루",
  "address": "광주광역시 남구 주월동  남구주월골드클래스어반시티 상가동 호",
  "lat": 190759.4826,
  "lng": 181218.6665
 },
 {
  "id": 208,
  "name": "무지개",
  "address": "인천광역시 서구 석남동  ",
  "lat": 170805.7135,
  "lng": 445604.9474
 },
 {
  "id": 209,
  "name": "느긋",
  "address": "서울특별시 광진구 중곡동  플러스홈 호",
  "lat": 207362.5339,
  "lng": 451285.5102
 },
 {
  "id": 210,
  "name": "러블리몽",
  "address": "충청북도 청주시 서원구 모충동  호",
  "lat": 243007.3587,
  "lng": 347363.2155
 },
 {
  "id": 211,
  "name": "해밀동물병원",
  "phone": "044-864-5952",
  "address": "세종특별자치시 해밀동 산  스카이드림 호",
  "lat": 223660.2207,
  "lng": 336453.6609
 },
 {
  "id": 212,
  "name": "몽트루디",
  "address": "경상북도 칠곡군 석적읍 남율리  ",
  "lat": 326261.2937,
  "lng": 286151.1919
 },
 {
  "id": 213,
  "name": "스틸블루 애견샵",
  "address": "경기도 고양시 일산서구 대화동  하나로프라자 호",
  "lat": 178391.2987,
  "lng": 464539.4148
 },
 {
  "id": 214,
  "name": "멍멍미용실",
  "address": "경기도 평택시 비전동  ",
  "lat": 209944.8098,
  "lng": 388621.5801
 },
 {
  "id": 215,
  "name": "네오펫",
  "phone": "031-446-7500",
  "address": "경기도 안양시 동안구 관양동  ",
  "lat": 197431.474,
  "lng": 434034.5116
 },
 {
  "id": 216,
  "name": "멍단장",
  "address": "인천광역시 계양구 서운동  층 호",
  "lat": 177240.3231,
  "lng": 447558.0201
 },
 {
  "id": 217,
  "name": "마이댕댕(My.d,d)",
  "address": "부산광역시 사하구 다대동  ",
  "lat": 379944.5248,
  "lng": 175157.8663
 },
 {
  "id": 218,
  "name": "멍욕탕",
  "address": "부산광역시 해운대구 중동  해운대힐스테이트위브 ",
  "lat": 398546.5723,
  "lng": 186991.922
 },
 {
  "id": 219,
  "name": "헬로다키",
  "address": "부산광역시 북구 화명동  대원빌딩 ",
  "lat": 383284.87,
  "lng": 194995.7497
 },
 {
  "id": 220,
  "name": "더 이쁘개",
  "phone": "02-303-3886",
  "address": "서울특별시 서대문구 남가좌동  호",
  "lat": 193101.5566,
  "lng": 452469.3819
 },
 {
  "id": 221,
  "name": "베이비댕",
  "address": "대전광역시 서구 관저동  ",
  "lat": 228963.8203,
  "lng": 310667.4893
 },
 {
  "id": 222,
  "name": "버드네 애견",
  "phone": "042-526-5523",
  "address": "대전광역시 중구 유천동  ",
  "lat": 235114.8619,
  "lng": 313018.0094
 },
 {
  "id": 223,
  "name": "구독살롱",
  "address": "인천광역시 서구 원당동  서영아너시티차 "
 },
 {
  "id": 224,
  "name": "달리포유",
  "address": "제주특별자치도 제주시 용담일동  ",
  "lat": 154649.7337,
  "lng": 911.5278257
 },
 {
  "id": 225,
  "name": "놀자개 애견미용",
  "address": "제주특별자치도 제주시 노형동  ",
  "lat": 149938.1362,
  "lng": -1265.469497
 },
 {
  "id": 226,
  "name": "멍레스트",
  "address": "강원도 양양군 양양읍 성내리  ",
  "lat": 341605.8567,
  "lng": 509841.854
 },
 {
  "id": 227,
  "name": "펫보드레",
  "address": "부산광역시 기장군 기장읍 교리  ",
  "lat": 401585.914,
  "lng": 197162.3211
 },
 {
  "id": 228,
  "name": "정든동물병원",
  "phone": "02-306-9990",
  "address": "서울특별시 은평구 증산동  DMC센트럴자이 호",
  "lat": 191337.2733,
  "lng": 453194.5377
 },
 {
  "id": 229,
  "name": "썬샤인뷰티독",
  "address": "서울특별시 강북구 미아동  삼성래미안트리베라아파트 ",
  "lat": 201731.6844,
  "lng": 457219.3356
 },
 {
  "id": 230,
  "name": "댕라잇",
  "address": "충청남도 당진시 신평면 거산리  기무클럽 ",
  "lat": 177901.4978,
  "lng": 375267.8846
 },
 {
  "id": 231,
  "name": "사랑 DOG 차지",
  "address": "경상남도 양산시 물금읍 증산리  ",
  "lat": 382453.0197,
  "lng": 202403.2791
 },
 {
  "id": 232,
  "name": "이쁘댕",
  "phone": "061-686-2121",
  "address": "전라남도 여수시 화장동  ",
  "lat": 258857.1619,
  "lng": 141733.5308
 },
 {
  "id": 233,
  "name": "나라애견",
  "address": "충청남도 천안시 동남구 성황동  수평빌딩 ",
  "lat": 213343.15,
  "lng": 368349.6255
 },
 {
  "id": 234,
  "name": "펫싸롱",
  "address": "인천광역시 서구 석남동  ",
  "lat": 170941.4802,
  "lng": 444391.4521
 },
 {
  "id": 235,
  "name": "그루밍에스",
  "address": "부산광역시 연제구 연산동  ",
  "lat": 389955.8327,
  "lng": 188508.2993
 },
 {
  "id": 236,
  "name": "까까주까",
  "address": "경상북도 경주시 용강동  ",
  "lat": 401092.301,
  "lng": 267001.138
 },
 {
  "id": 237,
  "name": "꿀독",
  "address": "경기도 평택시 고덕면 당현리  삼성오피스텔 ",
  "lat": 202503.0866,
  "lng": 396166.2463
 },
 {
  "id": 238,
  "name": "댕발란스",
  "address": "대구광역시 달서구 진천동  ",
  "lat": 338302.8601,
  "lng": 257945.1819
 },
 {
  "id": 239,
  "name": "사랑해똥깡아지",
  "address": "서울특별시 은평구 대조동  ",
  "lat": 192846.4957,
  "lng": 457074.4101
 },
 {
  "id": 240,
  "name": "강아지산책",
  "address": "충청남도 계룡시 엄사면 엄사리  ",
  "lat": 221465.1476,
  "lng": 309887.4509
 },
 {
  "id": 241,
  "name": "야호살롱",
  "address": "경상남도 양산시 물금읍 증산리  ",
  "lat": 382327.5019,
  "lng": 202964.7306
 },
 {
  "id": 242,
  "name": "애지중지",
  "address": "경기도 이천시 증포동  ",
  "lat": 240170.3213,
  "lng": 420863.6478
 },
 {
  "id": 243,
  "name": "펫조이",
  "address": "경기도 남양주시 별내면 청학리  주공프라자 ",
  "lat": 210325.2189,
  "lng": 467364.5112
 },
 {
  "id": 244,
  "name": "까까네 애견미용",
  "phone": "032-504-3331",
  "address": "인천광역시 부평구 부평동  포레스턴 호",
  "lat": 175942.0507,
  "lng": 443399.3524
 },
 {
  "id": 245,
  "name": "사랑 그루밍",
  "address": "인천광역시 미추홀구 도화동  ",
  "lat": 169437.3989,
  "lng": 441802.3834
 },
 {
  "id": 246,
  "name": "댕구르강아지유치원",
  "phone": "051-363-0511",
  "address": "부산광역시 북구 화명동  ",
  "lat": 383454.461,
  "lng": 195248.0293
 },
 {
  "id": 247,
  "name": "무드앤독",
  "address": "부산광역시 부산진구 연지동  ",
  "lat": 386937.1404,
  "lng": 187606.5006
 },
 {
  "id": 248,
  "name": "퍼피하우스",
  "phone": "051-404-0208",
  "address": "부산광역시 영도구 동삼동  ",
  "lat": 388872.892,
  "lng": 177254.228
 },
 {
  "id": 249,
  "name": "331멍발소",
  "address": "서울특별시 동대문구 제기동  ",
  "lat": 203594.6732,
  "lng": 453635.2115
 },
 {
  "id": 250,
  "name": "이코그루밍",
  "address": "강원도 춘천시 석사동  ",
  "lat": 266148.7192,
  "lng": 483101.6087
 },
 {
  "id": 251,
  "name": "이쁘개",
  "address": "경기도 광명시 일직동  광명역파크자이 ",
  "lat": 189852.7106,
  "lng": 434738.7138
 },
 {
  "id": 252,
  "name": "청사펫살롱",
  "address": "대전광역시 서구 월평동  갤러리빌 럭스 ",
  "lat": 233758.5549,
  "lng": 317549.3397
 },
 {
  "id": 253,
  "name": "알로하 강아지유치원 호텔",
  "address": "인천광역시 서구 청라동  청라매그놀리아오피스텔 ",
  "lat": 169061.59,
  "lng": 447876.375
 },
 {
  "id": 254,
  "name": "아임엣지",
  "address": "인천광역시 서구 청라동  ",
  "lat": 169500,
  "lng": 447843.875
 },
 {
  "id": 255,
  "name": "더 귀엽개",
  "address": "인천광역시 부평구 부개동  성진프라자 층 호",
  "lat": 176855.2705,
  "lng": 444675.9508
 },
 {
  "id": 256,
  "name": "네네살롱",
  "phone": "070-4281-0658",
  "address": "인천광역시 미추홀구 도화동  ",
  "lat": 171043.9901,
  "lng": 439924.7743
 },
 {
  "id": 257,
  "name": "보드랑",
  "address": "전라남도 목포시 용해동  용해포미시장 ",
  "lat": 144928.8726,
  "lng": 146612.8329
 },
 {
  "id": 258,
  "name": "정다운동물병원",
  "address": "경기도 부천시 중동  ",
  "lat": 180181.893,
  "lng": 443947.6441
 },
 {
  "id": 259,
  "name": "베베몽",
  "address": "경기도 수원시 권선구 권선동  권선자이 이편한세상 ",
  "lat": 202272.3145,
  "lng": 416779.0376
 },
 {
  "id": 260,
  "name": "쓰담쓰담",
  "address": "울산광역시 북구 천곡동  B동 호",
  "lat": 411273.5314,
  "lng": 239698.2994
 },
 {
  "id": 261,
  "name": "하이치치",
  "address": "대전광역시 중구 산성동  ",
  "lat": 234643.919,
  "lng": 311777.3311
 },
 {
  "id": 262,
  "name": "라라펫",
  "address": "대구광역시 달서구 성당동  ",
  "lat": 339875.3288,
  "lng": 261107.2821
 },
 {
  "id": 263,
  "name": "나나펫",
  "address": "서울특별시 중랑구 묵동  우성아파트 ",
  "lat": 206742.663,
  "lng": 456053.9097
 },
 {
  "id": 264,
  "name": "몽크네 이발관",
  "address": "경상북도 포항시 북구 장성동  ",
  "lat": 414308.2126,
  "lng": 288057.4711
 },
 {
  "id": 265,
  "name": "후루네",
  "address": "경기도 시흥시 배곧동  배곧중앙프라자 ",
  "lat": 175810.8487,
  "lng": 429428.5379
 },
 {
  "id": 266,
  "name": "재롱이네",
  "phone": "032-547-2006",
  "address": "인천광역시 서구 연희동  우성아파트 ",
  "lat": 170850.5883,
  "lng": 449832.536
 },
 {
  "id": 267,
  "name": "벨라펫살롱",
  "address": "대구광역시 남구 봉덕동  스카이파크 호",
  "lat": 344370.6838,
  "lng": 261238.0348
 },
 {
  "id": 268,
  "name": "문 그루밍(Moon grooming)",
  "address": "대구광역시 동구 신암동  이안동대구 상가건물 동 호",
  "lat": 345935.8811,
  "lng": 265471.634
 },
 {
  "id": 269,
  "name": "몽이네 애견미용",
  "address": "서울특별시 강북구 번동  평안빌딩 ",
  "lat": 203447.4397,
  "lng": 458322.9975
 },
 {
  "id": 270,
  "name": "뽀뽀애견",
  "address": "충청북도 제천시 중앙로가  복합건축물 ",
  "lat": 307734.4994,
  "lng": 405407.2363
 },
 {
  "id": 271,
  "name": "그루머연우",
  "address": "경기도 고양시 일산서구 대화동  층 ",
  "lat": 177960.995,
  "lng": 463815.085
 },
 {
  "id": 272,
  "name": "GROOMING.세라",
  "address": "경기도 수원시 장안구 천천동  ",
  "lat": 197651.7748,
  "lng": 422354.2149
 },
 {
  "id": 273,
  "name": "메이숑",
  "address": "광주광역시 서구 쌍촌동  ",
  "lat": 186824.3438,
  "lng": 182609.4473
 },
 {
  "id": 274,
  "name": "버블멍",
  "address": "인천광역시 연수구 선학동  연주빌딩 층 호 ",
  "lat": 173491.9838,
  "lng": 435777.8106
 },
 {
  "id": 275,
  "name": "댕댕살롱",
  "phone": "061-793-0909",
  "address": "전라남도 광양시 마동  ",
  "lat": 264778.6141,
  "lng": 160119.5848
 },
 {
  "id": 276,
  "name": "딤플",
  "address": "경기도 하남시 학암동  위례그린파크 푸르지오 호",
  "lat": 213688.8329,
  "lng": 441242.4188
 },
 {
  "id": 277,
  "name": "댕발머리",
  "address": "대구광역시 달서구 상인동  ",
  "lat": 339555.3046,
  "lng": 257784.3116
 },
 {
  "id": 278,
  "name": "꽃단장하시개",
  "address": "서울특별시 은평구 갈현동  ",
  "lat": 192441.1464,
  "lng": 457290.4456
 },
 {
  "id": 279,
  "name": "우리 강아지",
  "address": "충청북도 청주시 서원구 성화동  호",
  "lat": 240872.0103,
  "lng": 346207.3791
 },
 {
  "id": 280,
  "name": "미냥이",
  "address": "경기도 광주시 경안동  경기광주역 금호리첸시아 ",
  "lat": 222618.1889,
  "lng": 434045.2666
 },
 {
  "id": 281,
  "name": "(주)파밀리에드마스코타",
  "address": "충청남도 천안시 서북구 불당동  ",
  "lat": 209026.7029,
  "lng": 367516.6284
 },
 {
  "id": 282,
  "name": "예쁘개 미용할개",
  "phone": "653-1666",
  "address": "강원도 강릉시 송정동  ",
  "lat": 369049.2053,
  "lng": 477350.1011
 },
 {
  "id": 283,
  "name": "파트라슈",
  "address": "경기도 구리시 갈매동  ",
  "lat": 210696.3111,
  "lng": 459526.3693
 },
 {
  "id": 284,
  "name": "모노퍼피",
  "phone": "042-482-5003",
  "address": "대전광역시 서구 둔산동  하이스트빌 ",
  "lat": 233501.6219,
  "lng": 316813.8431
 },
 {
  "id": 285,
  "name": "펫 가디언",
  "phone": "031-546-3443",
  "address": "경기도 용인시 기흥구 신갈동  정훈빌딩 ",
  "lat": 209627.0857,
  "lng": 419469.2841
 },
 {
  "id": 286,
  "name": "깎을건댕?",
  "address": "경기도 남양주시 다산동  다산지금센트럴에일린의뜰 상가동 ",
  "lat": 215087.1299,
  "lng": 456074.6457
 },
 {
  "id": 287,
  "name": "천방 애견 미용실",
  "address": "울산광역시 울주군 범서읍 굴화리  문수산 푸르지오 ",
  "lat": 404197.1396,
  "lng": 230704.8667
 },
 {
  "id": 288,
  "name": "강아지미용실",
  "address": "울산광역시 남구 무거동  선경아파트 ",
  "lat": 404453.2934,
  "lng": 230065.8731
 },
 {
  "id": 289,
  "name": "525그루밍",
  "address": "대구광역시 중구 남산동  ",
  "lat": 342339.6528,
  "lng": 263288.8851
 },
 {
  "id": 290,
  "name": "슈슈멍",
  "address": "서울특별시 성동구 홍익동  ",
  "lat": 203089.8905,
  "lng": 451436.3221
 },
 {
  "id": 291,
  "name": "버블그루밍",
  "address": "충청북도 청주시 서원구 산남동  ",
  "lat": 241653.0669,
  "lng": 345373.5617
 },
 {
  "id": 293,
  "name": "아이러브댕댕",
  "phone": "031-376-0216",
  "address": "경기도 오산시 궐동  한가람빌 상가 호",
  "lat": 204689.6356,
  "lng": 405953.8692
 },
 {
  "id": 294,
  "name": "이루다 펫살롱",
  "address": "울산광역시 북구 염포동  ",
  "lat": 416808.4026,
  "lng": 228729.4156
 },
 {
  "id": 295,
  "name": "라이크몽",
  "address": "부산광역시 연제구 연산동  조강빌딩 ",
  "lat": 389306.6424,
  "lng": 189540.7082
 },
 {
  "id": 296,
  "name": "개밥집",
  "phone": "051-710-1541",
  "address": "부산광역시 해운대구 반송동  ",
  "lat": 395609.1133,
  "lng": 193860.9654
 },
 {
  "id": 297,
  "name": "뽀송하개 재워줄개",
  "address": "경기도 용인시 처인구 남사읍 완장리  층 ",
  "lat": 215938.0743,
  "lng": 407908.0379
 },
 {
  "id": 298,
  "name": "동글동글",
  "address": "경상남도 양산시 동면 금산리  ",
  "lat": 384067.5179,
  "lng": 203385.6338
 },
 {
  "id": 299,
  "name": "하이펫살롱",
  "address": "경상남도 거제시 고현동  한일빌딩 ",
  "lat": 348833.8222,
  "lng": 156590.6459
 },
 {
  "id": 300,
  "name": "강아지 그리다",
  "address": "전라북도 전주시 완산구 평화동가  ",
  "lat": 212458.2196,
  "lng": 255088.9634
 },
 {
  "id": 301,
  "name": "포포(for paw)",
  "address": "경기도 고양시 덕양구 도내동  테마타워 ",
  "lat": 188494.6773,
  "lng": 459238.9964
 },
 {
  "id": 302,
  "name": "D.A in(디아인)",
  "address": "경기도 안산시 단원구 고잔동  유림빌딩 ",
  "lat": 185741.5,
  "lng": 424082.345
 },
 {
  "id": 303,
  "name": "위키위키",
  "address": "경기도 동두천시 지행동  ",
  "lat": 205540.9191,
  "lng": 487313.6222
 },
 {
  "id": 304,
  "name": "머즐(muzzle)",
  "address": "광주광역시 광산구 월계동  ",
  "lat": 185124.1405,
  "lng": 190209.0419
 },
 {
  "id": 305,
  "name": "왓츠그루멍",
  "address": "경기도 남양주시 다산동  ",
  "lat": 213823.7536,
  "lng": 456940.6851
 },
 {
  "id": 306,
  "name": "레몽",
  "address": "경기도 남양주시 와부읍 도곡리  벽산아파트 ",
  "lat": 219112.7833,
  "lng": 453147.4778
 },
 {
  "id": 307,
  "name": "포엘몽",
  "address": "경기도 구리시 수택동  경기부동산 ",
  "lat": 212721.8988,
  "lng": 454870.5963
 },
 {
  "id": 308,
  "name": "원당애견센타",
  "address": "경기도 고양시 덕양구 성사동  ",
  "lat": 185427.6873,
  "lng": 461481.8022
 },
 {
  "id": 309,
  "name": "마이제이스",
  "address": "서울특별시 강동구 성내동  ",
  "lat": 211270.6936,
  "lng": 447080.9067
 },
 {
  "id": 310,
  "name": "마이리틀펫",
  "phone": "064-739-7380",
  "address": "제주특별자치도 서귀포시 강정동  ",
  "lat": 153977.2952,
  "lng": -26616.97199
 },
 {
  "id": 311,
  "name": "멍캐슬",
  "phone": "061-930-7347",
  "address": "전라남도 나주시 빛가람동  ",
  "lat": 181010.3348,
  "lng": 169120.443
 },
 {
  "id": 312,
  "name": "뭉스파",
  "address": "전라남도 여수시 문수동  세종캐슬하임 ",
  "lat": 263736.4567,
  "lng": 139728.8913
 },
 {
  "id": 313,
  "name": "뽀짝뽀짝",
  "address": "전라북도 전주시 완산구 효자동가  ",
  "lat": 209694.3405,
  "lng": 257331.9625
 },
 {
  "id": 314,
  "name": "디오펫살롱",
  "address": "부산광역시 북구 구포동  ",
  "lat": 382684.152,
  "lng": 191314.878
 },
 {
  "id": 315,
  "name": "아름다운야옹_미야옹",
  "address": "서울특별시 도봉구 창동  ",
  "lat": 203299.9377,
  "lng": 459496.6549
 },
 {
  "id": 316,
  "name": "구름이 펫 미용샵",
  "address": "제주특별자치도 제주시 도남동  ",
  "lat": 155979.6451,
  "lng": 56.90690872
 },
 {
  "id": 317,
  "name": "올리스 24(마산)",
  "address": "경상남도 창원시 마산회원구 내서읍 호계리  코오롱그랜드쇼핑 ",
  "lat": 338340.7739,
  "lng": 196858.6873
 },
 {
  "id": 318,
  "name": "샤방하개",
  "address": "경기도 양주시 옥정동  ",
  "lat": 207867.825,
  "lng": 479177.1063
 },
 {
  "id": 319,
  "name": "펫트리멍",
  "address": "경기도 수원시 권선구 구운동  ",
  "lat": 197703.2177,
  "lng": 419294.8336
 },
 {
  "id": 320,
  "name": "펫하우스",
  "address": "부산광역시 부산진구 범전동  ",
  "lat": 387125.6781,
  "lng": 186905.9436
 },
 {
  "id": 321,
  "name": "포커스 온 펫",
  "address": "서울특별시 강동구 강일동  골드프라자 ",
  "lat": 215401.0642,
  "lng": 452247.4319
 },
 {
  "id": 322,
  "name": "출장펫쌀롱 빙구네",
  "address": "제주특별자치도 제주시 애월읍 고내리  골든뷰 ",
  "lat": 140166.9492,
  "lng": -2449.592456
 },
 {
  "id": 323,
  "name": "가을애견미용실",
  "address": "충청남도 천안시 서북구 쌍용동  ",
  "lat": 211633.0773,
  "lng": 366532.7938
 },
 {
  "id": 324,
  "name": "강아지 꼬순내",
  "address": "경기도 평택시 신장동  ",
  "lat": 204598.6522,
  "lng": 398643.7916
 },
 {
  "id": 325,
  "name": "독특",
  "address": "대구광역시 수성구 상동  층 ",
  "lat": 345775.4346,
  "lng": 260764.3587
 },
 {
  "id": 326,
  "name": "만점애견미용",
  "address": "서울특별시 은평구 대조동  ",
  "lat": 193169.3001,
  "lng": 457063.9036
 },
 {
  "id": 327,
  "name": "몽뚜루",
  "address": "경기도 화성시 봉담읍 상리  ",
  "lat": 195217.5086,
  "lng": 413703.3326
 },
 {
  "id": 328,
  "name": "즐겨찾냥",
  "address": "경기도 용인시 처인구 역북동  호",
  "lat": 216422.4419,
  "lng": 415084.8002
 },
 {
  "id": 329,
  "name": "해랑동물병원",
  "phone": "031-811-8991",
  "address": "경기도 고양시 덕양구 토당동  금호프라자 ",
  "lat": 183778.6343,
  "lng": 458154.13
 },
 {
  "id": 330,
  "name": "포에버위드유 살롱",
  "address": "경기도 성남시 중원구 도촌동  래일스타 층 ",
  "lat": 213308.4691,
  "lng": 434770.1353
 },
 {
  "id": 331,
  "name": "봄이네샵",
  "phone": "062-972-5911",
  "address": "광주광역시 광산구 월계동  ",
  "lat": 186126.4558,
  "lng": 190647.0058
 },
 {
  "id": 332,
  "name": "누누띠네",
  "address": "광주광역시 서구 쌍촌동  ",
  "lat": 187962.4248,
  "lng": 184222.2937
 },
 {
  "id": 333,
  "name": "멍멍쁘띠샵",
  "phone": "032-552-5525",
  "address": "인천광역시 계양구 작전동  호",
  "lat": 175439.1435,
  "lng": 447831.537
 },
 {
  "id": 334,
  "name": "멍시앙",
  "address": "인천광역시 미추홀구 도화동  ",
  "lat": 171120.2453,
  "lng": 439710.1057
 },
 {
  "id": 335,
  "name": "무르무르(Mur Mur)",
  "address": "대구광역시 동구 각산동  호",
  "lat": 354753.4699,
  "lng": 265605.7104
 },
 {
  "id": 336,
  "name": "멍밀리",
  "address": "부산광역시 동래구 수안동  ",
  "lat": 389735.7278,
  "lng": 191342.5514
 },
 {
  "id": 337,
  "name": "마스터독 MASTER DOG",
  "phone": "0507-1357-9226",
  "address": "서울특별시 송파구 오금동  데코판넬(주) ",
  "lat": 212219.2771,
  "lng": 444690.4336
 },
 {
  "id": 338,
  "name": "꾸꾸네",
  "address": "경상북도 포항시 북구 양덕동  ",
  "lat": 415820.3584,
  "lng": 289150.7775
 },
 {
  "id": 339,
  "name": "강아지 정거장",
  "address": "전라남도 고흥군 고흥읍 남계리  ",
  "lat": 226392.9006,
  "lng": 123525.4116
 },
 {
  "id": 340,
  "name": "도그샵",
  "phone": "033-638-8144",
  "address": "강원도 속초시 교동  ",
  "lat": 338144.5159,
  "lng": 523463.307
 },
 {
  "id": 341,
  "name": "보라펫",
  "address": "울산광역시 동구 방어동  ",
  "lat": 418746.4016,
  "lng": 222964.936
 },
 {
  "id": 342,
  "name": "몽이 애견샵",
  "address": "경상남도 진주시 상봉동  ",
  "lat": 297947.4238,
  "lng": 189445.4389
 },
 {
  "id": 343,
  "name": "더 좋은 동물병원",
  "address": "경기도 시흥시 배곧동  서영베니스스퀘어 ",
  "lat": 176072.6007,
  "lng": 429602.844
 },
 {
  "id": 344,
  "name": "미모고양이",
  "address": "울산광역시 남구 신정동  울산신정푸르지오 ",
  "lat": 409878.2622,
  "lng": 229932.3267
 },
 {
  "id": 345,
  "name": "광주애견유치원호텔미용 마마스미독펜트하우스",
  "address": "광주광역시 북구 용봉동  층 ",
  "lat": 190500.5267,
  "lng": 186524.0697
 },
 {
  "id": 346,
  "name": "온리 펫살롱",
  "phone": "032-868-3501",
  "address": "인천광역시 미추홀구 주안동  ",
  "lat": 172149.972,
  "lng": 439844.2119
 },
 {
  "id": 347,
  "name": "포멀독 반려견센터",
  "address": "대구광역시 달성군 다사읍 죽곡리  동 호",
  "lat": 332228.1745,
  "lng": 262881.9191
 },
 {
  "id": 348,
  "name": "차차언니",
  "address": "대구광역시 수성구 노변동  층 ",
  "lat": 353393.0977,
  "lng": 260821.7689
 },
 {
  "id": 349,
  "name": "애견미용",
  "address": "대구광역시 동구 방촌동  ",
  "lat": 349804.1617,
  "lng": 265702.9327
 },
 {
  "id": 350,
  "name": "펫살롱지니",
  "address": "경상남도 창원시 마산합포구 중앙동가  ",
  "lat": 342700.0346,
  "lng": 189916.1628
 },
 {
  "id": 351,
  "name": "메리몽 펫 그루밍",
  "address": "경기도 김포시 감정동  중봉마을 신안실크밸리 ",
  "lat": 173078.0921,
  "lng": 457747.175
 },
 {
  "id": 352,
  "name": "그루밍아지",
  "address": "경기도 남양주시 다산동  다산지금지구 F ",
  "lat": 215200.3438,
  "lng": 455372.3663
 },
 {
  "id": 353,
  "name": "버들강아지",
  "address": "대구광역시 수성구 두산동  층 ",
  "lat": 346312.8247,
  "lng": 260195.9758
 },
 {
  "id": 354,
  "name": "고프로그루밍",
  "address": "부산광역시 북구 구포동  ",
  "lat": 382032.202,
  "lng": 191169.3596
 },
 {
  "id": 355,
  "name": "댄디하개",
  "address": "서울특별시 노원구 상계동  미도아파트 ",
  "lat": 205309.7558,
  "lng": 460429.8792
 },
 {
  "id": 356,
  "name": "우리집강아지예쁘개",
  "address": "경기도 광주시 회덕동  ",
  "lat": 221290.1213,
  "lng": 436415.0159
 },
 {
  "id": 357,
  "name": "개예쁘다 런닝센터",
  "address": "경상남도 양산시 용당동  ",
  "lat": 398672.6107,
  "lng": 216165.9299
 },
 {
  "id": 358,
  "name": "댕냥이그루밍 스킨코트케어전문 애견미용실",
  "phone": "042-935-8944",
  "address": "대전광역시 서구 관저동  ",
  "lat": 230158.0959,
  "lng": 311623.2344
 },
 {
  "id": 359,
  "name": "르시앙",
  "address": "대구광역시 수성구 범어동  범어에일린의뜰 지하층 상가동 B호",
  "lat": 346451.5298,
  "lng": 262564.1856
 },
 {
  "id": 360,
  "name": "개버드 스쿨",
  "address": "경기도 파주시 동패동  ",
  "lat": 177591.5842,
  "lng": 467139.5096
 },
 {
  "id": 361,
  "name": "몽글하개",
  "address": "경기도 평택시 비전동  좋은메디타워 ",
  "lat": 210049.8717,
  "lng": 388925.7937
 },
 {
  "id": 363,
  "name": "포숑이네",
  "address": "광주광역시 북구 운암동  층 ",
  "lat": 189884.5364,
  "lng": 185888.5821
 },
 {
  "id": 364,
  "name": "몽쥬르",
  "address": "인천광역시 연수구 송도동  층 호",
  "lat": 167630.628,
  "lng": 431952.0565
 },
 {
  "id": 365,
  "name": "도글로리(Doglory)",
  "address": "서울특별시 성북구 하월곡동  코업스타클래스 층 상가동 호",
  "lat": 203502.0041,
  "lng": 455500.569
 },
 {
  "id": 366,
  "name": "fresh dog",
  "address": "경기도 의정부시 고산동  백봉프라자 호",
  "lat": 209328.7791,
  "lng": 469754.3255
 },
 {
  "id": 367,
  "name": "숲속애견샵",
  "address": "대구광역시 서구 비산동  ",
  "lat": 342092.688,
  "lng": 264743.8115
 },
 {
  "id": 368,
  "name": "PUPPY PAPA(퍼피 파파)",
  "address": "서울특별시 강서구 화곡동  호",
  "lat": 186808.1611,
  "lng": 447690.4423
 },
 {
  "id": 369,
  "name": "개향기",
  "address": "충청남도 당진시 송산면 삼월리  ",
  "lat": 171400.6123,
  "lng": 381348.0409
 },
 {
  "id": 370,
  "name": "Blue dog club",
  "address": "전라북도 전주시 덕진구 진북동  리더스 B동 호",
  "lat": 213105.7093,
  "lng": 258952.3571
 },
 {
  "id": 371,
  "name": "원더플독",
  "address": "충청남도 아산시 온천동  ",
  "lat": 199822.788,
  "lng": 363913.2726
 },
 {
  "id": 372,
  "name": "펫바스로 수지",
  "address": "경기도 용인시 수지구 동천동  에메랄드빌딩 ",
  "lat": 208372.108,
  "lng": 425729.2082
 },
 {
  "id": 373,
  "name": "바바빈 애견 미용·호텔",
  "address": "대구광역시 수성구 시지동  층 ",
  "lat": 353269.6144,
  "lng": 261757.5394
 },
 {
  "id": 374,
  "name": "몽쉘독",
  "address": "서울특별시 금천구 독산동  다온빌딩 ",
  "lat": 191157.8567,
  "lng": 441520.3153
 },
 {
  "id": 375,
  "name": "이발하개",
  "address": "충청북도 청주시 흥덕구 옥산면 가락리  호",
  "lat": 234698.3031,
  "lng": 352654.2499
 },
 {
  "id": 376,
  "name": "힙독 애견카페",
  "address": "전라북도 전주시 완산구 효자동가  ",
  "lat": 209810.93,
  "lng": 257359.69
 },
 {
  "id": 377,
  "name": "마이펫",
  "address": "충청북도 제천시 하소동  ",
  "lat": 306501.5981,
  "lng": 404497.8777
 },
 {
  "id": 378,
  "name": "히피살롱",
  "address": "울산광역시 중구 서동  ",
  "lat": 412015.3618,
  "lng": 233798.5129
 },
 {
  "id": 379,
  "name": "306 퍼피",
  "phone": "062-716-0306",
  "address": "광주광역시 서구 마륵동  ",
  "lat": 185191.5643,
  "lng": 182864.0468
 },
 {
  "id": 380,
  "name": "띵커몽드(THINKER MONDE)",
  "address": "대구광역시 달서구 월성동  ",
  "lat": 337705.9555,
  "lng": 259257.4502
 },
 {
  "id": 381,
  "name": "윙크펫",
  "address": "서울특별시 금천구 시흥동  근생주택 ",
  "lat": 191493.3822,
  "lng": 439785.2095
 },
 {
  "id": 382,
  "name": "벨루스독",
  "address": "충청북도 청주시 서원구 수곡동  ",
  "lat": 242727.8095,
  "lng": 346236.9594
 },
 {
  "id": 383,
  "name": "버디그루밍",
  "address": "경상남도 양산시 물금읍 범어리  현진에버빌아파트 상가 ",
  "lat": 383296.8546,
  "lng": 205371.0949
 },
 {
  "id": 384,
  "name": "코카갤러리 부산",
  "address": "경상남도 김해시 상동면 매리  ",
  "lat": 378424.3079,
  "lng": 203842.2059
 },
 {
  "id": 385,
  "name": "구산동 강아지",
  "address": "경상남도 김해시 구산동  ",
  "lat": 369867.5511,
  "lng": 196483.4167
 },
 {
  "id": 386,
  "name": "에브리데이 벌스데이",
  "address": "경상남도 진주시 충무공동  호",
  "lat": 304518.9951,
  "lng": 186903.4295
 },
 {
  "id": 387,
  "name": "단아하개",
  "address": "경상남도 창녕군 창녕읍 교하리  ",
  "lat": 335900.4568,
  "lng": 227872.6793
 },
 {
  "id": 388,
  "name": "들려보개 청북점",
  "address": "경기도 평택시 청북읍 옥길리  ",
  "lat": 192585.8199,
  "lng": 390701.5664
 },
 {
  "id": 389,
  "name": "강아지 미용실",
  "address": "광주광역시 서구 유촌동  ",
  "lat": 187343.1545,
  "lng": 185115.3378
 },
 {
  "id": 390,
  "name": "펫츠네",
  "address": "인천광역시 연수구 송도동  힐스테이트 송도 더테라스 상가동 호",
  "lat": 166870.8871,
  "lng": 434329.2557
 },
 {
  "id": 391,
  "name": "댕댕이네",
  "address": "부산광역시 북구 덕천동  ",
  "lat": 383293.4346,
  "lng": 192024.2702
 },
 {
  "id": 392,
  "name": "봄",
  "address": "경기도 화성시 팔탄면 매곡리  ",
  "lat": 189562.2934,
  "lng": 401346.3963
 },
 {
  "id": 393,
  "name": "천사 애견",
  "address": "충청남도 서산시 대산읍 대산리  ",
  "lat": 149539.3506,
  "lng": 382070.9694
 },
 {
  "id": 394,
  "name": "재벌될개",
  "address": "충청남도 아산시 둔포면 운용리  ",
  "lat": 204968.4038,
  "lng": 381203.301
 },
 {
  "id": 395,
  "name": "봉스 펫살롱X용품",
  "address": "강원도 원주시 단계동  ",
  "lat": 282322.8639,
  "lng": 427992.5422
 },
 {
  "id": 396,
  "name": "축복이네 애견미용",
  "phone": "031-647-6594",
  "address": "경기도 평택시 비전동  ",
  "lat": 209944.8098,
  "lng": 388621.5801
 },
 {
  "id": 397,
  "name": "J GROOMING",
  "address": "경기도 평택시 이충동  부영아파트 ",
  "lat": 205770.5516,
  "lng": 395659.6889
 },
 {
  "id": 398,
  "name": "고양이 목욕탕",
  "address": "경기도 수원시 권선구 호매실동  ",
  "lat": 196697.9185,
  "lng": 417429.1606
 },
 {
  "id": 399,
  "name": "도그데일리",
  "address": "부산광역시 연제구 거제동  ",
  "lat": 388924.7192,
  "lng": 189395.8872
 },
 {
  "id": 400,
  "name": "올리스24 명지점",
  "address": "부산광역시 강서구 명지동  ",
  "lat": 375614.0751,
  "lng": 180224.0775
 },
 {
  "id": 401,
  "name": "오늘도 예쁘개",
  "address": "경상남도 창원시 마산합포구 남성동  ",
  "lat": 343481.5648,
  "lng": 190671.9787
 },
 {
  "id": 402,
  "name": "지우개",
  "address": "경상남도 김해시 봉황동  ",
  "lat": 371061.7429,
  "lng": 193891.7035
 },
 {
  "id": 403,
  "name": "하이냥",
  "address": "전라남도 여수시 안산동  ",
  "lat": 259616.855,
  "lng": 140414.5751
 },
 {
  "id": 404,
  "name": "콩자반 애견미용실",
  "address": "경기도 의정부시 민락동  ",
  "lat": 207818.2199,
  "lng": 470893.7771
 },
 {
  "id": 405,
  "name": "뽀송뽀송강아지미용실",
  "phone": "052-957-0088",
  "address": "울산광역시 동구 전하동  ",
  "lat": 420135.3569,
  "lng": 226129.0822
 },
 {
  "id": 407,
  "name": "몽핏",
  "address": "충청남도 천안시 서북구 쌍용동  아나힐링뷰티존 ",
  "lat": 210599.9032,
  "lng": 366422.8117
 },
 {
  "id": 408,
  "name": "너는 나의 봄",
  "address": "경기도 수원시 권선구 구운동  ",
  "lat": 197372.573,
  "lng": 419317.8327
 },
 {
  "id": 409,
  "name": "에덴",
  "address": "광주광역시 서구 화정동  ",
  "lat": 188359.6876,
  "lng": 182677.7862
 },
 {
  "id": 410,
  "name": "해리 애견 미용실",
  "address": "인천광역시 부평구 청천동  호",
  "lat": 173848.5821,
  "lng": 445963.4811
 },
 {
  "id": 411,
  "name": "인물나개",
  "address": "대구광역시 동구 용계동  율하역엘크루아파트 상가 동 호",
  "lat": 352650.8623,
  "lng": 264910.1556
 },
 {
  "id": 412,
  "name": "손길",
  "address": "경기도 화성시 영천동  ",
  "lat": 208508.4921,
  "lng": 411709.7994
 },
 {
  "id": 413,
  "name": "봄",
  "address": "경기도 화성시 팔탄면 매곡리  ",
  "lat": 189562.2934,
  "lng": 401346.3963
 },
 {
  "id": 414,
  "name": "조이펫살롱",
  "address": "충청북도 충주시 용산동  ",
  "lat": 283551.2081,
  "lng": 385510.1425
 },
 {
  "id": 415,
  "name": "예쁘개",
  "address": "대전광역시 서구 괴정동  ",
  "lat": 234254.3782,
  "lng": 314961.0992
 },
 {
  "id": 416,
  "name": "글림 펫 (Gleam pet)",
  "address": "인천광역시 부평구 산곡동  부평 IPARK 층 호 ",
  "lat": 173661.0666,
  "lng": 445144.0956
 },
 {
  "id": 417,
  "name": "으뜸동물병원",
  "phone": "032-713-4904",
  "address": "인천광역시 미추홀구 주안동  ",
  "lat": 171641.9258,
  "lng": 439417.9017
 },
 {
  "id": 418,
  "name": "뽀얌",
  "address": "대구광역시 북구 대현동  ",
  "lat": 344942.2651,
  "lng": 265486.4317
 },
 {
  "id": 419,
  "name": "안나네",
  "address": "서울특별시 노원구 상계동  ",
  "lat": 207256.7931,
  "lng": 463261.8647
 },
 {
  "id": 420,
  "name": "루피네",
  "address": "서울특별시 용산구 원효로가  성취빌딩 호",
  "lat": 196553.603,
  "lng": 448051.047
 },
 {
  "id": 421,
  "name": "퍼피엘",
  "address": "경기도 양주시 옥정동  ",
  "lat": 208599.342,
  "lng": 480182.4227
 },
 {
  "id": 422,
  "name": "파티가는 댕댕이",
  "address": "전라남도 순천시 용당동  층(용당동,송암빌딩) ",
  "lat": 245097.3789,
  "lng": 163926.1622
 },
 {
  "id": 423,
  "name": "멍치원",
  "address": "부산광역시 수영구 수영동  ",
  "lat": 393384.7028,
  "lng": 187308.2221
 },
 {
  "id": 424,
  "name": "몽몽하지",
  "address": "경상북도 의성군 단북면 노연리  ",
  "lat": 328293.3085,
  "lng": 321988.6887
 },
 {
  "id": 425,
  "name": "마이댕",
  "address": "충청북도 충주시 칠금동  ",
  "lat": 282127.1407,
  "lng": 387112.6003
 },
 {
  "id": 426,
  "name": "더멍멍",
  "address": "경기도 이천시 갈산동  ",
  "lat": 240408.775,
  "lng": 419978.8106
 },
 {
  "id": 428,
  "name": "마킹",
  "address": "경상북도 김천시 율곡동  ",
  "lat": 307522.5889,
  "lng": 291920.238
 },
 {
  "id": 429,
  "name": "댕댕이 이발소",
  "phone": "043-260-8233",
  "address": "충청북도 청주시 흥덕구 옥산면 오산리  ",
  "lat": 233022.2062,
  "lng": 351801.9345
 },
 {
  "id": 430,
  "name": "개스트하우스",
  "address": "충청북도 청주시 청원구 사천동  ",
  "lat": 242285.7336,
  "lng": 351108.0254
 },
 {
  "id": 431,
  "name": "벨라독",
  "address": "경상남도 의령군 의령읍 동동리  ",
  "lat": 314809.7309,
  "lng": 203272.4586
 },
 {
  "id": 432,
  "name": "해피멍데이",
  "address": "경상남도 김해시 내동  ",
  "lat": 369266.152,
  "lng": 195084.8871
 },
 {
  "id": 433,
  "name": "올펫살롱",
  "address": "경기도 성남시 수정구 창곡동  위례리버스토리 호",
  "lat": 212068.3494,
  "lng": 440674.703
 },
 {
  "id": 434,
  "name": "까끄송",
  "address": "부산광역시 동래구 명륜동  ",
  "lat": 389398.8277,
  "lng": 191917.8113
 },
 {
  "id": 435,
  "name": "푸리샵",
  "address": "부산광역시 서구 토성동가  ",
  "lat": 384236.8493,
  "lng": 179724.845
 },
 {
  "id": 436,
  "name": "루댕프",
  "address": "전라남도 여수시 화장동  ",
  "lat": 258378.9162,
  "lng": 141989.2652
 },
 {
  "id": 437,
  "name": "멍미용하 개",
  "address": "부산광역시 금정구 장전동  ",
  "lat": 389833.5524,
  "lng": 195605.7747
 },
 {
  "id": 438,
  "name": "예쁜강아지",
  "address": "경상북도 경산시 중방동  ",
  "lat": 356677.6613,
  "lng": 259959.1845
 },
 {
  "id": 439,
  "name": "몽쉘몽봉",
  "address": "강원도 홍천군 홍천읍 갈마곡리  ",
  "lat": 279667.829,
  "lng": 466412.184
 },
 {
  "id": 440,
  "name": "지아'조",
  "address": "강원도 동해시 북평동  ",
  "lat": 387942.9204,
  "lng": 444492.2855
 },
 {
  "id": 441,
  "name": "품격있개",
  "address": "경기도 안산시 단원구 고잔동  휴 지오 오피스텔 ",
  "lat": 185666.7089,
  "lng": 424087.2176
 },
 {
  "id": 443,
  "name": "몽글몽글애견미용",
  "address": "광주광역시 남구 방림동  층 ",
  "lat": 192434.3728,
  "lng": 181431.8552
 },
 {
  "id": 444,
  "name": "온리동물병원",
  "phone": "032-719-4812",
  "address": "인천광역시 부평구 십정동  더샵부평센트럴시티 F동 호",
  "lat": 173203.2441,
  "lng": 441511.6782
 },
 {
  "id": 445,
  "name": "털복숭이친구들",
  "address": "경기도 광주시 경안동  ",
  "lat": 222666.8562,
  "lng": 434112.1204
 },
 {
  "id": 446,
  "name": "이쁘개 머싯개",
  "address": "충청남도 천안시 서북구 차암동  ",
  "lat": 209030.5919,
  "lng": 370971.6166
 },
 {
  "id": 447,
  "name": "오엠동물병원",
  "phone": "031-902-7567",
  "address": "경기도 고양시 일산서구 대화동  고양 원마운트 호",
  "lat": 178268.1356,
  "lng": 462480.7344
 },
 {
  "id": 448,
  "name": "보리쌀롱",
  "address": "부산광역시 강서구 명지동  ",
  "lat": 375555.7465,
  "lng": 180165.1715
 },
 {
  "id": 449,
  "name": "예쁜댕",
  "address": "서울특별시 강동구 암사동  아키스아파트 ",
  "lat": 211980.7224,
  "lng": 449676.1843
 },
 {
  "id": 450,
  "name": "친절한애견미용실",
  "phone": "02-352-9036",
  "address": "서울특별시 은평구 녹번동  ",
  "lat": 193476.8374,
  "lng": 456209.726
 },
 {
  "id": 451,
  "name": "마인동물의료센터",
  "address": "서울특별시 강북구 번동  해솔빌딩 ",
  "lat": 202450.0179,
  "lng": 459211.3243
 },
 {
  "id": 452,
  "name": "고양이샵",
  "address": "충청북도 청주시 상당구 남주동  ",
  "lat": 243291.5615,
  "lng": 347725.0595
 },
 {
  "id": 453,
  "name": "강아지 왈츠",
  "address": "경기도 용인시 기흥구 언남동  ",
  "lat": 210570.4127,
  "lng": 421818.5662
 },
 {
  "id": 454,
  "name": "강아지를 부탁할개",
  "phone": "031-656-4353",
  "address": "경기도 평택시 비전동  ",
  "lat": 210106.846,
  "lng": 388460.6522
 },
 {
  "id": 455,
  "name": "파인댕스",
  "address": "부산광역시 기장군 정관읍 방곡리  ",
  "lat": 398675.5217,
  "lng": 204741.9698
 },
 {
  "id": 456,
  "name": "마이펫 부산대점",
  "address": "부산광역시 금정구 장전동  ",
  "lat": 390068.9682,
  "lng": 194567.4309
 },
 {
  "id": 457,
  "name": "놀아줄개",
  "phone": "051-992-1251",
  "address": "부산광역시 남구 문현동  문현매일슈퍼마켓 ",
  "lat": 388704.9526,
  "lng": 184079.8489
 },
 {
  "id": 458,
  "name": "새로미펫살롱",
  "address": "경기도 광주시 경안동  경기광주역 금호리첸시아 ",
  "lat": 222618.1889,
  "lng": 434045.2666
 },
 {
  "id": 459,
  "name": "MUNG MOONG(멍뭉)",
  "address": "대전광역시 서구 탄방동  다온채 ",
  "lat": 234271.6261,
  "lng": 316210.2401
 },
 {
  "id": 460,
  "name": "헤이멍",
  "address": "부산광역시 수영구 남천동  남천 엑슬루타워 ",
  "lat": 391910.5185,
  "lng": 184343.5037
 },
 {
  "id": 461,
  "name": "옹's",
  "address": "제주특별자치도 제주시 한림읍 동명리  ",
  "lat": 131694.2134,
  "lng": -9558.984109
 },
 {
  "id": 462,
  "name": "퍼피스테이",
  "phone": "043-232-0008",
  "address": "충청북도 청주시 흥덕구 비하동  ",
  "lat": 237671.48,
  "lng": 349040.3041
 },
 {
  "id": 463,
  "name": "파브 퍼피",
  "address": "경상남도 창원시 진해구 자은동  ",
  "lat": 355892.2547,
  "lng": 185350.4508
 },
 {
  "id": 464,
  "name": "빗질해줄개",
  "address": "경상남도 창원시 진해구 이동  ",
  "lat": 354149.6735,
  "lng": 185290.7981
 },
 {
  "id": 465,
  "name": "댕댕이 이발소",
  "address": "전라남도 해남군 해남읍 구교리  제일소독공사 ",
  "lat": 162712.9485,
  "lng": 119495.6211
 },
 {
  "id": 466,
  "name": "다듬다",
  "address": "경기도 용인시 기흥구 영덕동  ",
  "lat": 206253.0964,
  "lng": 419060.055
 },
 {
  "id": 467,
  "name": "예쁘면 다개",
  "address": "경기도 남양주시 평내동  ",
  "lat": 220608.9592,
  "lng": 460299.5916
 },
 {
  "id": 468,
  "name": "댕스토리",
  "address": "대전광역시 대덕구 석봉동  ",
  "lat": 238151.3102,
  "lng": 327906.5702
 },
 {
  "id": 469,
  "name": "커뮤니캣",
  "address": "인천광역시 서구 청라동  ",
  "lat": 167099.8748,
  "lng": 448018.7616
 },
 {
  "id": 470,
  "name": "주주 펫 살롱",
  "address": "인천광역시 남동구 간석동  ",
  "lat": 173669.4221,
  "lng": 439806.9561
 },
 {
  "id": 471,
  "name": "몽클리어",
  "address": "인천광역시 미추홀구 용현동  ",
  "lat": 167760.2157,
  "lng": 438759.089
 },
 {
  "id": 472,
  "name": "멍이와 냥이",
  "phone": "051-325-0067",
  "address": "부산광역시 사상구 모라동  ",
  "lat": 381245.7644,
  "lng": 189461.856
 },
 {
  "id": 473,
  "name": "프리티 우멍",
  "address": "경기도 화성시 향남읍 상신리  ",
  "lat": 191017.9351,
  "lng": 400484.3295
 },
 {
  "id": 474,
  "name": "오드그",
  "address": "충청남도 천안시 서북구 불당동  ",
  "lat": 209440.8382,
  "lng": 367727.3855
 },
 {
  "id": 475,
  "name": "몽이묭실",
  "phone": "070-4190-2788",
  "address": "강원도 횡성군 횡성읍 읍하리  ",
  "lat": 287300.3884,
  "lng": 444005.2832
 },
 {
  "id": 476,
  "name": "디지클럽 미용실",
  "phone": "031-856-1112",
  "address": "경기도 양주시 고읍동  ",
  "lat": 206833.3623,
  "lng": 477910.5962
 },
 {
  "id": 477,
  "name": "멍 때리지마",
  "address": "강원도 인제군 인제읍 상동리  ",
  "lat": 303045.9469,
  "lng": 508194.8034
 },
 {
  "id": 478,
  "name": "올리스24셀프목욕",
  "address": "경기도 의정부시 민락동  거택프라자 ",
  "lat": 208472.7814,
  "lng": 471362.251
 },
 {
  "id": 479,
  "name": "포핑요",
  "address": "제주특별자치도 제주시 월평동  ",
  "lat": 160534.7464,
  "lng": -2822.791111
 },
 {
  "id": 480,
  "name": "댕다방",
  "address": "경상남도 통영시 봉평동  ",
  "lat": 329167.3777,
  "lng": 149171.4805
 },
 {
  "id": 481,
  "name": "몽글몽글",
  "address": "전라남도 목포시 옥암동  ",
  "lat": 149688.1497,
  "lng": 146026.3019
 },
 {
  "id": 482,
  "name": "Hi,댕댕",
  "address": "충청남도 천안시 서북구 성정동  ",
  "lat": 211897.5657,
  "lng": 368874.7032
 },
 {
  "id": 483,
  "name": "멍댕샵",
  "address": "경기도 고양시 일산동구 중산동  하늘마을단지 ",
  "lat": 180503.3292,
  "lng": 464253.5017
 },
 {
  "id": 484,
  "name": "댕뜰리에",
  "address": "광주광역시 서구 치평동  상무에스케이뷰 ",
  "lat": 186423.7049,
  "lng": 183144.5875
 },
 {
  "id": 485,
  "name": "엘랑",
  "address": "대구광역시 북구 동천동  ",
  "lat": 340382.4812,
  "lng": 272496.3624
 },
 {
  "id": 486,
  "name": "구미산동 애견미용 눈부시개",
  "address": "경상북도 구미시 산동읍 신당리  ",
  "lat": 328653.9945,
  "lng": 295918.2744
 },
 {
  "id": 487,
  "name": "사랑이애견미용",
  "phone": "033-762-7949",
  "address": "강원도 원주시 단계동  ",
  "lat": 282835.419,
  "lng": 429197.8672
 },
 {
  "id": 488,
  "name": "멍뷰티",
  "address": "강원도 원주시 무실동  ",
  "lat": 282034.1055,
  "lng": 425931.6512
 },
 {
  "id": 489,
  "name": "멍데이 mungday",
  "address": "강원도 원주시 문막읍 동화리  문막현진아파트 ",
  "lat": 273356.7021,
  "lng": 425187.9792
 },
 {
  "id": 490,
  "name": "개스트살롱",
  "address": "경기도 안양시 동안구 호계동  층 ",
  "lat": 196220.5568,
  "lng": 430346.1261
 },
 {
  "id": 491,
  "name": "마이뷰티독",
  "address": "경기도 성남시 수정구 창곡동  지하층 ",
  "lat": 213183.9976,
  "lng": 440771.123
 },
 {
  "id": 492,
  "name": "트리밍박스",
  "phone": "042-822-2723",
  "address": "대전광역시 서구 관저동  ",
  "lat": 230179.2808,
  "lng": 310576.9275
 },
 {
  "id": 493,
  "name": "버터멍",
  "address": "충청북도 청주시 상당구 금천동  경희아파트 상가동 호",
  "lat": 245451.4636,
  "lng": 347391.4968
 },
 {
  "id": 494,
  "name": "써니 SCHOOL",
  "address": "강원도 태백시 황지동  ",
  "lat": 375716.6326,
  "lng": 410528.9074
 },
 {
  "id": 495,
  "name": "참견아카데미",
  "address": "광주광역시 남구 행암동  지에스타워 호",
  "lat": 189807.4902,
  "lng": 178217.8943
 },
 {
  "id": 496,
  "name": "썸머버튼",
  "address": "대구광역시 달서구 대곡동  DS타워 ",
  "lat": 338150.5882,
  "lng": 256135.5107
 },
 {
  "id": 497,
  "name": "율하 베스트 펫살롱",
  "address": "경상남도 김해시 율하동  율하메디칼 ",
  "lat": 365066.8326,
  "lng": 187206.565
 },
 {
  "id": 498,
  "name": "멍멍플라워",
  "phone": "031-655-6259",
  "address": "경기도 평택시 용이동  ",
  "lat": 212048.8626,
  "lng": 388105.8392
 },
 {
  "id": 499,
  "name": "샤워앤독",
  "phone": "070-4799-2020",
  "address": "서울특별시 구로구 신도림동  신도림에스케이뷰 동 호",
  "lat": 189894.6369,
  "lng": 444982.5482
 },
 {
  "id": 500,
  "name": "개스코트",
  "address": "경상남도 김해시 외동  ",
  "lat": 369029.5038,
  "lng": 194360.7409
 },
 {
  "id": 501,
  "name": "몽땅 포레스트",
  "address": "경상남도 진주시 신안동  ",
  "lat": 297459.2489,
  "lng": 187168.1304
 },
 {
  "id": 502,
  "name": "멍멍이발소",
  "address": "경기도 안산시 단원구 와동  ",
  "lat": 184036.0918,
  "lng": 426640.2714
 },
 {
  "id": 503,
  "name": "투게더동물병원",
  "phone": "032-710-7578",
  "address": "인천광역시 연수구 송도동  호",
  "lat": 167630.628,
  "lng": 431952.0565
 },
 {
  "id": 504,
  "name": "강아지 뷰티",
  "address": "대구광역시 북구 관음동  ",
  "lat": 339372.1994,
  "lng": 271827.2834
 },
 {
  "id": 505,
  "name": "꽃개미용실",
  "address": "서울특별시 노원구 상계동  ",
  "lat": 205961.6236,
  "lng": 462188.6744
 },
 {
  "id": 506,
  "name": "해맑개",
  "address": "서울특별시 강북구 번동  ",
  "lat": 203376.2271,
  "lng": 458571.1051
 },
 {
  "id": 507,
  "name": "디어독",
  "address": "충청북도 청주시 상당구 수동  ",
  "lat": 243948.2708,
  "lng": 348843.4614
 },
 {
  "id": 508,
  "name": "멍컷",
  "address": "경상북도 경주시 충효동  충효이안아파트 ",
  "lat": 396101.0977,
  "lng": 262897.1464
 },
 {
  "id": 509,
  "name": "예쁘개 미용할개",
  "address": "전라남도 영암군 영암읍 서남리  ",
  "lat": 172096.0934,
  "lng": 144397.8859
 },
 {
  "id": 510,
  "name": "봉 그루밍",
  "address": "전라남도 순천시 연향동  ",
  "lat": 246829.3543,
  "lng": 160747.0147
 },
 {
  "id": 511,
  "name": "션하냥",
  "address": "충청남도 서산시 인지면 차리  ",
  "lat": 146015.6492,
  "lng": 364297.5449
 },
 {
  "id": 512,
  "name": "Uzzu 우쭈",
  "address": "대구광역시 수성구 황금동  호",
  "lat": 346110.9253,
  "lng": 261495.3582
 },
 {
  "id": 513,
  "name": "위즈펫살롱",
  "address": "서울특별시 노원구 중계동  양지대림차아파트 ",
  "lat": 206311.6167,
  "lng": 461230.5916
 },
 {
  "id": 514,
  "name": "DAY U",
  "address": "서울특별시 강북구 미아동  ",
  "lat": 202641.5213,
  "lng": 457021.3968
 },
 {
  "id": 515,
  "name": "똥개언니",
  "address": "인천광역시 미추홀구 용현동  ",
  "lat": 167813.2196,
  "lng": 439207.2198
 },
 {
  "id": 516,
  "name": "제이DOG",
  "address": "경상남도 창원시 진해구 풍호동  ",
  "lat": 355054.1099,
  "lng": 183626.9372
 },
 {
  "id": 517,
  "name": "강아지 목욕탕",
  "address": "경상북도 울진군 울진읍 읍내리  ",
  "lat": 413787.0448,
  "lng": 391119.7696
 },
 {
  "id": 518,
  "name": "이쁘개",
  "address": "전라남도 고흥군 도양읍 봉암리  ",
  "lat": 212551.2075,
  "lng": 114659.981
 },
 {
  "id": 519,
  "name": "더펫샵",
  "phone": "031-851-3758",
  "address": "경기도 의정부시 신곡동  통",
  "lat": 205585.0955,
  "lng": 471708.9434
 },
 {
  "id": 520,
  "name": "구르미살롱",
  "address": "인천광역시 중구 운서동  ",
  "lat": 155582.295,
  "lng": 443908.06
 },
 {
  "id": 521,
  "name": "포동이 펫살롱",
  "phone": "053-473-7770",
  "address": "대구광역시 달서구 용산동  성서영남우방타운 ",
  "lat": 336937.4104,
  "lng": 262641.1792
 },
 {
  "id": 522,
  "name": "포숑포숑",
  "address": "대구광역시 수성구 두산동  층 호",
  "lat": 346803.4569,
  "lng": 259474.2222
 },
 {
  "id": 523,
  "name": "로히펫살롱",
  "address": "부산광역시 연제구 연산동  ",
  "lat": 389628.1492,
  "lng": 190060.5082
 },
 {
  "id": 524,
  "name": "에브리 뽀송",
  "address": "세종특별자치시 나성동  나릿재마을단지 ",
  "lat": 223330.6101,
  "lng": 332242.8177
 },
 {
  "id": 526,
  "name": "슈슈댕 구래점",
  "phone": "0507-1407-1389",
  "address": "경기도 김포시 구래동  메트로타워 예미지 ",
  "lat": 167324.8246,
  "lng": 460347.8841
 },
 {
  "id": 527,
  "name": "토리살롱",
  "address": "경기도 하남시 망월동  해링턴타워 레이크파크, 층 호",
  "lat": 216801.06,
  "lng": 451123.7533
 },
 {
  "id": 528,
  "name": "서서동물의료센터",
  "phone": "031-8027-6991",
  "address": "경기도 하남시 풍산동  미사탑프라자, 층 호",
  "lat": 216546.1562,
  "lng": 450600.7074
 },
 {
  "id": 529,
  "name": "보밸롱",
  "address": "경기도 하남시 망월동  하남미사 롯데캐슬 스타, 층 호",
  "lat": 216761.9418,
  "lng": 451297.294
 },
 {
  "id": 530,
  "name": "고양이숲",
  "address": "경기도 안산시 단원구 고잔동  성진빌딩 ",
  "lat": 184970.8258,
  "lng": 423021.8826
 },
 {
  "id": 531,
  "name": "구르몽",
  "address": "경기도 부천시 소사본동  신일해피트리 제상가동 층 호 ",
  "lat": 181986.859,
  "lng": 440922.8737
 },
 {
  "id": 532,
  "name": "판교포레동물병원 미용실",
  "phone": "031-715-7975",
  "address": "경기도 성남시 분당구 대장동  호",
  "lat": 205999.0478,
  "lng": 429415.2057
 },
 {
  "id": 533,
  "name": "몽말순",
  "address": "부산광역시 부산진구 전포동  ",
  "lat": 388357.33,
  "lng": 185623.873
 },
 {
  "id": 534,
  "name": "멍샵",
  "address": "부산광역시 동구 초량동  ",
  "lat": 385641.6668,
  "lng": 182059.6036
 },
 {
  "id": 535,
  "name": "챠밍도그",
  "address": "서울특별시 은평구 응암동  ",
  "lat": 192744.4727,
  "lng": 453753.445
 },
 {
  "id": 536,
  "name": "멍이펫",
  "address": "강원도 원주시 문막읍 문막리  ",
  "lat": 272387.9878,
  "lng": 423307.2403
 },
 {
  "id": 537,
  "name": "몽몽이털",
  "address": "경기도 시흥시 대야동  시흥은계엘에이치단지 ",
  "lat": 182039.4489,
  "lng": 438619.9545
 },
 {
  "id": 539,
  "name": "개예쁨주의",
  "address": "인천광역시 계양구 박촌동  호",
  "lat": 177358.6408,
  "lng": 450307.4994
 },
 {
  "id": 540,
  "name": "반자주 일광신도시점",
  "phone": "051-723-3248",
  "address": "부산광역시 기장군 일광읍 삼성리  ",
  "lat": 402256.1082,
  "lng": 198622.966
 },
 {
  "id": 541,
  "name": "고든펫",
  "address": "부산광역시 수영구 망미동  ",
  "lat": 391937.6557,
  "lng": 188132.7119
 },
 {
  "id": 542,
  "name": "몽드레",
  "address": "부산광역시 남구 문현동  ",
  "lat": 388732.1676,
  "lng": 184301.587
 },
 {
  "id": 543,
  "name": "우리그루밍",
  "address": "대구광역시 남구 대명동  층 ",
  "lat": 342285.7545,
  "lng": 262065.7241
 },
 {
  "id": 544,
  "name": "인제 오개",
  "address": "강원도 인제군 인제읍 상동리  ",
  "lat": 302764.0796,
  "lng": 507966.9346
 },
 {
  "id": 545,
  "name": "아름답개",
  "address": "경기도 용인시 수지구 동천동  TEN마트 ",
  "lat": 208207.8959,
  "lng": 425810.518
 },
 {
  "id": 546,
  "name": "센트럴 독",
  "address": "경기도 시흥시 은행동  시흥 센트럴돔 그랑트리 캐슬 ",
  "lat": 182412.0138,
  "lng": 438208.757
 },
 {
  "id": 547,
  "name": "아르멍",
  "address": "경기도 구리시 갈매동  갈매역아이파크 ",
  "lat": 210273.0981,
  "lng": 459131.619
 },
 {
  "id": 548,
  "name": "비마이퍼피",
  "address": "광주광역시 광산구 수완동  영훈빌딩 ",
  "lat": 184354.4355,
  "lng": 187844.9925
 },
 {
  "id": 549,
  "name": "댕댕이 살롱",
  "phone": "062-961-1640",
  "address": "광주광역시 광산구 신가동  ",
  "lat": 185275.1321,
  "lng": 187305.9256
 },
 {
  "id": 550,
  "name": "럽포포(Love for Paw)",
  "address": "서울특별시 송파구 장지동  위례아이파크 ",
  "lat": 212494.3277,
  "lng": 441590.0623
 },
 {
  "id": 551,
  "name": "티티그루밍",
  "address": "부산광역시 강서구 명지동  삼정그린코아 더베스트 ",
  "lat": 374192.1855,
  "lng": 179282.8612
 },
 {
  "id": 552,
  "name": "아키하우스",
  "address": "부산광역시 해운대구 우동  우신골든메르시아 ",
  "lat": 395423.5349,
  "lng": 186093.1826
 },
 {
  "id": 553,
  "name": "온유동물병원",
  "phone": "061-755-0155",
  "address": "전라남도 순천시 서면 선평리  ",
  "lat": 245990.3141,
  "lng": 165539.6279
 },
 {
  "id": 554,
  "name": "쵸코네묭실",
  "address": "경기도 성남시 분당구 야탑동  삼성코아 호",
  "lat": 210727.9263,
  "lng": 433746.4975
 },
 {
  "id": 555,
  "name": "다다펫스파",
  "address": "대전광역시 서구 탄방동  나비家 아르누보팰리스 ",
  "lat": 234687.4147,
  "lng": 316466.7182
 },
 {
  "id": 556,
  "name": "KGP",
  "address": "대전광역시 중구 대흥동  ",
  "lat": 238358.2263,
  "lng": 314073.8142
 },
 {
  "id": 557,
  "name": "퍼피랩 익스클루시브",
  "address": "서울특별시 강남구 청담동  ",
  "lat": 203939.2111,
  "lng": 447055.0358
 },
 {
  "id": 558,
  "name": "미스터 멍 애견샵",
  "address": "경상북도 포항시 북구 대흥동  ",
  "lat": 412701.0803,
  "lng": 284118.8728
 },
 {
  "id": 559,
  "name": "씻고올개",
  "address": "경기도 고양시 일산동구 백석동  호",
  "lat": 181354.195,
  "lng": 460480.135
 },
 {
  "id": 560,
  "name": "the 예쁘개",
  "address": "경기도 고양시 일산동구 정발산동  ",
  "lat": 179997.5416,
  "lng": 463252.7643
 },
 {
  "id": 561,
  "name": "그루밍 멍데이",
  "phone": "031-504-2655",
  "address": "경기도 안산시 단원구 와동  ",
  "lat": 184666.026,
  "lng": 425614.386
 },
 {
  "id": 562,
  "name": "또, 보개",
  "phone": "031-233-2331",
  "address": "경기도 수원시 권선구 권선동  ",
  "lat": 202505.405,
  "lng": 417025.7784
 },
 {
  "id": 563,
  "name": "헬로우 그루밍",
  "address": "대구광역시 북구 복현동  층 ",
  "lat": 346404.1445,
  "lng": 267846.2884
 },
 {
  "id": 564,
  "name": "퍼피원데이",
  "address": "전라남도 광양시 광양읍 읍내리  ",
  "lat": 253402.5752,
  "lng": 164262.5429
 },
 {
  "id": 565,
  "name": "윤펫살롱",
  "address": "강원도 속초시 청학동  ",
  "lat": 338687.6616,
  "lng": 523622.3368
 },
 {
  "id": 566,
  "name": "에이미 그루밍",
  "address": "경기도 시흥시 대야동  디아망타운 ",
  "lat": 181596.5777,
  "lng": 437913.2683
 },
 {
  "id": 567,
  "name": "털로 덮인 친구들",
  "address": "경기도 수원시 영통구 이의동  ",
  "lat": 203659.5033,
  "lng": 421730.1352
 },
 {
  "id": 568,
  "name": "아이뽀 강아지미용실",
  "address": "인천광역시 남동구 구월동  ",
  "lat": 173997.7373,
  "lng": 438355.6268
 },
 {
  "id": 569,
  "name": "오롯(orot)",
  "address": "서울특별시 도봉구 쌍문동  한양차아파트 ",
  "lat": 202694.4521,
  "lng": 461628.9974
 },
 {
  "id": 570,
  "name": "까까보개",
  "address": "제주특별자치도 제주시 삼도일동  ",
  "lat": 155123.3391,
  "lng": 468.8026306
 },
 {
  "id": 571,
  "name": "다둥이네",
  "address": "경상남도 김해시 진영읍 진영리  중흥에스클래시에코시티 상가동 호",
  "lat": 356506.0684,
  "lng": 202438.7153
 },
 {
  "id": 572,
  "name": "몽그루밍",
  "address": "경상북도 경산시 진량읍 선화리  ",
  "lat": 363242.345,
  "lng": 265274.8956
 },
 {
  "id": 573,
  "name": "행자네 멍발소",
  "address": "강원도 속초시 조양동  속초조양동 E.S 아뜨리움 ",
  "lat": 339862.6194,
  "lng": 521715.4515
 },
 {
  "id": 574,
  "name": "견발소",
  "address": "경기도 안성시 공도읍 용두리  ",
  "lat": 214722.0265,
  "lng": 388746.1966
 },
 {
  "id": 575,
  "name": "몽슈",
  "address": "경기도 파주시 와동동  가람마을단지 동양엔파트월드메르디앙 ",
  "lat": 178202.145,
  "lng": 469329.4068
 },
 {
  "id": 576,
  "name": "몽실몽실",
  "address": "울산광역시 북구 화봉동  ",
  "lat": 414319.5368,
  "lng": 235582.6276
 },
 {
  "id": 577,
  "name": "개 멋",
  "phone": "032-832-5004",
  "address": "인천광역시 연수구 송도동  송도웰카운티단지 동 층호",
  "lat": 168782.6785,
  "lng": 430669.5753
 },
 {
  "id": 578,
  "name": "아베끄슈슈(배냇미용 전문)",
  "address": "서울특별시 강남구 삼성동  ",
  "lat": 204251.4989,
  "lng": 445610.069
 },
 {
  "id": 579,
  "name": "단디단디",
  "address": "서울특별시 성북구 종암동  ",
  "lat": 203198.0745,
  "lng": 455122.8974
 },
 {
  "id": 580,
  "name": "맘스펫살롱",
  "address": "경기도 남양주시 다산동  다산 아이파크 상가 ",
  "lat": 213769.86,
  "lng": 458309.5329
 },
 {
  "id": 581,
  "name": "늘봄펫살롱",
  "address": "경기도 평택시 용이동  ",
  "lat": 211798.7215,
  "lng": 388525.5791
 },
 {
  "id": 582,
  "name": "팔레트멍",
  "address": "경기도 수원시 팔달구 화서동  주공프라자 ",
  "lat": 199388.4419,
  "lng": 420425.6059
 },
 {
  "id": 583,
  "name": "개소리애견카페",
  "address": "경기도 수원시 영통구 영통동  e폴리스 ",
  "lat": 206527.0532,
  "lng": 416748.2784
 },
 {
  "id": 584,
  "name": "몽몽",
  "address": "광주광역시 광산구 신가동  ",
  "lat": 185018.72,
  "lng": 187609.505
 },
 {
  "id": 585,
  "name": "댕댕학당",
  "address": "인천광역시 미추홀구 용현동  삼성빌딩 ",
  "lat": 169397.9044,
  "lng": 439358.9247
 },
 {
  "id": 586,
  "name": "더이뻐지개 샵",
  "address": "대구광역시 서구 내당동  ",
  "lat": 340939.355,
  "lng": 263494.445
 },
 {
  "id": 587,
  "name": "투데이멍",
  "address": "경기도 양주시 옥정동  ",
  "lat": 208514.73,
  "lng": 479377.725
 },
 {
  "id": 588,
  "name": "율무네애견",
  "address": "경상남도 진주시 하대동  ",
  "lat": 302142.6492,
  "lng": 188857.3398
 },
 {
  "id": 589,
  "name": "르퍼피",
  "address": "경상남도 진주시 평거동  ",
  "lat": 296553.8261,
  "lng": 185982.7723
 },
 {
  "id": 590,
  "name": "꿀떨어지개",
  "address": "경상남도 진주시 정촌면 예하리  ",
  "lat": 300175.9641,
  "lng": 181313.8611
 },
 {
  "id": 591,
  "name": "와우애견",
  "address": "충청남도 천안시 동남구 원성동  열린교회 ",
  "lat": 213653.0927,
  "lng": 366407.4517
 },
 {
  "id": 592,
  "name": "헤이,버디(Hey,Buddy)",
  "address": "경기도 하남시 망월동  ",
  "lat": 216840.1421,
  "lng": 452638.06
 },
 {
  "id": 593,
  "name": "베베호텔 유치원 & 애견스파",
  "address": "경기도 군포시 산본동  ",
  "lat": 194338.6876,
  "lng": 429870.4841
 },
 {
  "id": 595,
  "name": "고양이미용사 임서영",
  "address": "부산광역시 해운대구 중동  ",
  "lat": 397433.6619,
  "lng": 187207.142
 },
 {
  "id": 596,
  "name": "메리몰펫샵",
  "address": "부산광역시 남구 문현동  ",
  "lat": 388901.1865,
  "lng": 184523.7776
 },
 {
  "id": 597,
  "name": "너에게올개 너올살롱",
  "address": "경기도 성남시 분당구 야탑동  엔즈빌오피스텔 호",
  "lat": 211040.4923,
  "lng": 434511.7742
 },
 {
  "id": 598,
  "name": "뽀숑뽀숑",
  "address": "부산광역시 부산진구 범천동  아이에프 ",
  "lat": 387638.9011,
  "lng": 184613.6433
 },
 {
  "id": 599,
  "name": "제이 펫 살롱",
  "address": "경상남도 창원시 마산합포구 교방동  ",
  "lat": 342272.7931,
  "lng": 191398.1171
 },
 {
  "id": 600,
  "name": "매리매리 쫑쫑",
  "address": "경상남도 김해시 구산동  ",
  "lat": 370252.7949,
  "lng": 196460.8234
 },
 {
  "id": 601,
  "name": "사랑스럽개",
  "address": "전라남도 무안군 삼향읍 남악리  에드가채움 주상복합 아파트 호",
  "lat": 151101.8591,
  "lng": 145598.4839
 },
 {
  "id": 602,
  "name": "아름다운 개",
  "address": "경기도 남양주시 다산동  마운틴프라자 ",
  "lat": 213598.0053,
  "lng": 458149.9755
 },
 {
  "id": 603,
  "name": "지금여기서행복하개",
  "phone": "070-8648-0695",
  "address": "경기도 구리시 교문동  프라자빌딩 ",
  "lat": 211540.7097,
  "lng": 454973.5923
 },
 {
  "id": 604,
  "name": "멍냥이네 가위컷",
  "address": "경기도 고양시 일산서구 일산동  층일부호",
  "lat": 179442.4687,
  "lng": 465004.6355
 },
 {
  "id": 605,
  "name": "피플앤독",
  "address": "경기도 안산시 단원구 고잔동  선경프라자 ",
  "lat": 184699.9874,
  "lng": 423521.0941
 },
 {
  "id": 606,
  "name": "얼렁오시개",
  "address": "경기도 안산시 단원구 원곡동  라성프라자 ",
  "lat": 182294.9853,
  "lng": 425039.319
 },
 {
  "id": 607,
  "name": "아이이뽀 퍼피하우스",
  "address": "경기도 안산시 상록구 사동  안산고잔차푸르지오 상가동 ",
  "lat": 183807.2852,
  "lng": 421578.0828
 },
 {
  "id": 608,
  "name": "우리집강아지 애견미용",
  "address": "경기도 평택시 신장동  ",
  "lat": 204882.6211,
  "lng": 396898.1979
 },
 {
  "id": 609,
  "name": "몽블리",
  "address": "울산광역시 울주군 언양읍 동부리  ",
  "lat": 392381.0672,
  "lng": 231593.1344
 },
 {
  "id": 610,
  "name": "이쁘냥 고양이미용실 대전점",
  "address": "대전광역시 유성구 구암동  ",
  "lat": 227470.7786,
  "lng": 317832.9706
 },
 {
  "id": 611,
  "name": "까꾸멍멍",
  "address": "충청북도 청주시 서원구 성화동  호",
  "lat": 240256.1096,
  "lng": 345904.9993
 },
 {
  "id": 612,
  "name": "그루멍캡틴",
  "address": "세종특별자치시 보람동  호려울마을단지 근린생활시설 C동 호",
  "lat": 225630.3406,
  "lng": 330672.8279
 },
 {
  "id": 613,
  "name": "위드미미",
  "address": "전라남도 목포시 상동  ",
  "lat": 147594.1994,
  "lng": 144362.0182
 },
 {
  "id": 614,
  "name": "댕댕아띠",
  "address": "충청북도 충주시 용산동  중앙냉동기부속 ",
  "lat": 283899.8781,
  "lng": 384893.8876
 },
 {
  "id": 615,
  "name": "몽몽살롱",
  "address": "강원도 강릉시 포남동  ",
  "lat": 367779.0467,
  "lng": 475611.5751
 },
 {
  "id": 616,
  "name": "토탄이네",
  "address": "경기도 김포시 구래동  ",
  "lat": 166825.0621,
  "lng": 460425.2359
 },
 {
  "id": 617,
  "name": "그루밍 단",
  "address": "경기도 성남시 분당구 정자동  엠코헤리츠 단지 동 호",
  "lat": 209367.3293,
  "lng": 429002.6561
 },
 {
  "id": 618,
  "name": "송단이네 반려견미용실",
  "address": "경기도 하남시 신장동  호",
  "lat": 219302.7954,
  "lng": 449153.3117
 },
 {
  "id": 619,
  "name": "꽃강아지",
  "address": "울산광역시 중구 태화동  ",
  "lat": 408511.5094,
  "lng": 230459.0777
 },
 {
  "id": 620,
  "name": "라라펫살롱",
  "address": "부산광역시 강서구 명지동  스위트팰리스 ",
  "lat": 375031.5495,
  "lng": 180581.9411
 },
 {
  "id": 621,
  "name": "조이댕댕",
  "address": "서울특별시 노원구 상계동  ",
  "lat": 205961.7144,
  "lng": 461479.6303
 },
 {
  "id": 622,
  "name": "해피투개털",
  "address": "세종특별자치시 고운동  세종 스마트큐브Ⅰ 호",
  "lat": 220890.7627,
  "lng": 333894.2665
 },
 {
  "id": 623,
  "name": "오구오구",
  "address": "경기도 파주시 문산읍 당동리  파주한양수자인 리버팰리스 아파트 ",
  "lat": 180028.8447,
  "lng": 484800.5522
 },
 {
  "id": 624,
  "name": "다다살롱",
  "address": "대전광역시 서구 탄방동  나비家 아르누보팰리스 ",
  "lat": 234687.4147,
  "lng": 316466.7182
 },
 {
  "id": 625,
  "name": "포 비숑(For Bichon)",
  "address": "인천광역시 남동구 서창동  ",
  "lat": 177851.981,
  "lng": 435666.2425
 },
 {
  "id": 626,
  "name": "엘슈슈",
  "address": "서울특별시 용산구 용산동가  호 ",
  "lat": 198783.1077,
  "lng": 449078.2318
 },
 {
  "id": 627,
  "name": "멍,멍#",
  "address": "충청북도 청주시 상당구 영운동  주님제일교회 호",
  "lat": 244348.7262,
  "lng": 346367.4015
 },
 {
  "id": 628,
  "name": "AGENT DOG",
  "address": "경기도 양주시 덕정동  은동마을주공단지아파트 ",
  "lat": 205925.991,
  "lng": 481854.0427
 },
 {
  "id": 629,
  "name": "헤이몽(HEYMONG)",
  "address": "경상북도 경산시 옥곡동  신동아프라자 ",
  "lat": 356077.0003,
  "lng": 258590.1539
 },
 {
  "id": 630,
  "name": "펫츠가든",
  "address": "경상북도 경산시 옥곡동  ",
  "lat": 356484.1811,
  "lng": 257823.787
 },
 {
  "id": 631,
  "name": "아양콩",
  "phone": "031-362-4329",
  "address": "경기도 안산시 상록구 일동  ",
  "lat": 188314.5134,
  "lng": 423018.7895
 },
 {
  "id": 632,
  "name": "개 미장원",
  "phone": "053-636-8272",
  "address": "대구광역시 달서구 도원동  ",
  "lat": 338919.9668,
  "lng": 257406.5448
 },
 {
  "id": 633,
  "name": "그루밍부스",
  "address": "서울특별시 송파구 장지동  송파파인타운단지 ",
  "lat": 211396.0129,
  "lng": 442186.9091
 },
 {
  "id": 634,
  "name": "힐링펫샵",
  "phone": "070-7670-7979",
  "address": "경기도 화성시 진안동  뱅뱅프라자 ",
  "lat": 203794.7222,
  "lng": 412640.5601
 },
 {
  "id": 635,
  "name": "창생동물병원",
  "phone": "055-533-4949",
  "address": "경상남도 창녕군 창녕읍 술정리  ",
  "lat": 335273.274,
  "lng": 227933.8998
 },
 {
  "id": 636,
  "name": "DOG IS",
  "address": "강원도 강릉시 홍제동  ",
  "lat": 364303.566,
  "lng": 474340.6281
 },
 {
  "id": 637,
  "name": "해피독(happy dog)",
  "address": "경기도 용인시 기흥구 영덕동  ",
  "lat": 206380.5938,
  "lng": 418944.8688
 },
 {
  "id": 638,
  "name": "온담동물의료센터",
  "address": "경기도 안산시 단원구 원곡동  ",
  "lat": 182292.0332,
  "lng": 424715.3544
 },
 {
  "id": 639,
  "name": "다듬다듬",
  "address": "경기도 성남시 분당구 이매동  신흥코아 호",
  "lat": 210803.525,
  "lng": 433051.775
 },
 {
  "id": 640,
  "name": "순이와 새롬이",
  "phone": "032-833-0606",
  "address": "인천광역시 연수구 청학동  ",
  "lat": 170298.365,
  "lng": 436041.3264
 },
 {
  "id": 641,
  "name": "우리동네",
  "address": "서울특별시 강동구 성내동  ",
  "lat": 211336.2962,
  "lng": 447829.4913
 },
 {
  "id": 642,
  "name": "뽀그리멍",
  "address": "서울특별시 강동구 성내동  ",
  "lat": 211653.3963,
  "lng": 447691.9073
 },
 {
  "id": 643,
  "name": "보미 펫 살롱",
  "address": "서울특별시 성북구 보문동가  호",
  "lat": 201633.1925,
  "lng": 453797.3638
 },
 {
  "id": 644,
  "name": "감성있개",
  "address": "서울특별시 중랑구 신내동  ",
  "lat": 208614.4356,
  "lng": 456169.8718
 },
 {
  "id": 645,
  "name": "복슬강아지",
  "address": "제주특별자치도 서귀포시 성산읍 고성리  성산일출봉농협 하나로마트 ",
  "lat": 191715.5645,
  "lng": -5557.948202
 },
 {
  "id": 646,
  "name": "멍장원",
  "address": "강원도 춘천시 퇴계동  퇴계금호타운아파트 ",
  "lat": 264821.0139,
  "lng": 483196.3947
 },
 {
  "id": 647,
  "name": "연희 동물의료원",
  "phone": "031-315-5119",
  "address": "경기도 시흥시 장곡동  ",
  "lat": 181144.7058,
  "lng": 430654.0984
 },
 {
  "id": 648,
  "name": "샵펫 강아지분양 울산점",
  "address": "울산광역시 중구 성남동  ",
  "lat": 410036.2805,
  "lng": 230822.8816
 },
 {
  "id": 649,
  "name": "다소니펫살롱",
  "address": "대구광역시 달성군 화원읍 구라리  삼우청솔타운 상가호",
  "lat": 336227.8385,
  "lng": 257706.0782
 },
 {
  "id": 650,
  "name": "이모네(e.mone)",
  "address": "대구광역시 수성구 범어동  층 ",
  "lat": 348094.7092,
  "lng": 263013.8676
 },
 {
  "id": 651,
  "name": "텐싸이클(10cycle)",
  "address": "경기도 화성시 송동  ",
  "lat": 209160.6885,
  "lng": 407245.7023
 },
 {
  "id": 652,
  "name": "멍냥's",
  "address": "경기도 화성시 진안동  ",
  "lat": 203371.7383,
  "lng": 412574.9766
 },
 {
  "id": 653,
  "name": "스타일나개",
  "phone": "031-934-0927",
  "address": "경기도 파주시 목동동  ",
  "lat": 176834.0586,
  "lng": 468486.034
 },
 {
  "id": 654,
  "name": "프랑소와펫 롯데일산점",
  "address": "경기도 고양시 일산동구 장항동  롯데백화점일산점 별관동 ",
  "lat": 179812.3312,
  "lng": 462059.5063
 },
 {
  "id": 655,
  "name": "애니멀즈",
  "phone": "042-824-8885",
  "address": "대전광역시 유성구 봉명동  ",
  "lat": 231015.4886,
  "lng": 317414.5633
 },
 {
  "id": 656,
  "name": "리치펫살롱",
  "address": "광주광역시 남구 방림동  ",
  "lat": 192507.5785,
  "lng": 181863.3017
 },
 {
  "id": 657,
  "name": "한양동물병원",
  "phone": "02-420-9993",
  "address": "서울특별시 송파구 송파동  ",
  "lat": 209960.6699,
  "lng": 444566.3446
 },
 {
  "id": 658,
  "name": "개이쁨샵",
  "address": "경상남도 창원시 진해구 남문동  서한빌딩 ",
  "lat": 359618.7778,
  "lng": 179871.1428
 },
 {
  "id": 659,
  "name": "개공감",
  "address": "경상남도 창원시 성산구 신월동  ",
  "lat": 353886.5664,
  "lng": 193957.4658
 },
 {
  "id": 660,
  "name": "혁신애견미용",
  "address": "경상남도 진주시 충무공동  토원빌딩 ",
  "lat": 304172.6811,
  "lng": 186882.8134
 },
 {
  "id": 661,
  "name": "GOODOG SHOWER",
  "address": "충청북도 제천시 강제동  ",
  "lat": 308753.2825,
  "lng": 403157.1517
 },
 {
  "id": 662,
  "name": "강아지마을",
  "phone": "052-244-9601",
  "address": "울산광역시 중구 성남동  ",
  "lat": 410059.4213,
  "lng": 230809.7246
 },
 {
  "id": 663,
  "name": "산성애견",
  "phone": "042-586-0722",
  "address": "대전광역시 중구 산성동  ",
  "lat": 234672.7213,
  "lng": 311650.2665
 },
 {
  "id": 664,
  "name": "댕이 데이",
  "address": "대구광역시 동구 지묘동  ",
  "lat": 346939.1785,
  "lng": 272653.6834
 },
 {
  "id": 665,
  "name": "털뭉치들",
  "address": "서울특별시 중랑구 면목동  ",
  "lat": 208025.1263,
  "lng": 454078.105
 },
 {
  "id": 666,
  "name": "쁘띠앙쥬",
  "phone": "061-273-8883",
  "address": "전라남도 목포시 산정동  ",
  "lat": 142701.8407,
  "lng": 145282.2366
 },
 {
  "id": 667,
  "name": "아이튼튼동물병원",
  "phone": "02-899-7580",
  "address": "경기도 광명시 일직동  골드스타빌딩 호",
  "lat": 189527.6415,
  "lng": 435394.6372
 },
 {
  "id": 668,
  "name": "셀프워시독",
  "address": "인천광역시 중구 중산동  하늘도시우미린단지 ",
  "lat": 160698.871,
  "lng": 443496.2273
 },
 {
  "id": 669,
  "name": "땅콩동물병원",
  "phone": "02-3394-7075",
  "address": "서울특별시 동대문구 답십리동  ",
  "lat": 205696.0463,
  "lng": 452256.6485
 },
 {
  "id": 670,
  "name": "퓨어멍",
  "address": "충청북도 청주시 상당구 금천동  호",
  "lat": 245117.1116,
  "lng": 347267.8308
 },
 {
  "id": 671,
  "name": "미용해·독",
  "phone": "043-233-4898",
  "address": "충청북도 청주시 서원구 성화동  ",
  "lat": 240651.0341,
  "lng": 346404.5527
 },
 {
  "id": 672,
  "name": "뽀송 애견미용",
  "address": "경기도 포천시 선단동  ",
  "lat": 214230.5781,
  "lng": 483286.4658
 },
 {
  "id": 673,
  "name": "애견의 정원",
  "address": "경상북도 안동시 송현동  ",
  "lat": 352114.5558,
  "lng": 344250.8963
 },
 {
  "id": 674,
  "name": "이쁘개 강아지 이발소",
  "address": "경기도 용인시 기흥구 서천동  ",
  "lat": 206776.3475,
  "lng": 415016.4838
 },
 {
  "id": 675,
  "name": "멍뭉이발소",
  "address": "경기도 남양주시 별내면 청학리  ",
  "lat": 210009.6344,
  "lng": 467419.9804
 },
 {
  "id": 676,
  "name": "아틀리독",
  "phone": "032-572-4903",
  "address": "인천광역시 부평구 십정동  층 ",
  "lat": 173166.946,
  "lng": 442320.3814
 },
 {
  "id": 677,
  "name": "뽀드미엘",
  "address": "대구광역시 달서구 장기동  ",
  "lat": 338290.5294,
  "lng": 261386.5661
 },
 {
  "id": 678,
  "name": "라온하제",
  "address": "부산광역시 동래구 안락동  ",
  "lat": 391148.3845,
  "lng": 190167.0472
 },
 {
  "id": 679,
  "name": "푸르댕",
  "address": "충청북도 청주시 청원구 오창읍 주성리  호",
  "lat": 240320.6221,
  "lng": 359128.8925
 },
 {
  "id": 680,
  "name": "멍쓰뭉쓰",
  "address": "경기도 화성시 향남읍 상신리  ",
  "lat": 191077.4502,
  "lng": 400248.5597
 },
 {
  "id": 681,
  "name": "산책가까",
  "address": "경상북도 칠곡군 약목면 관호리  ",
  "lat": 325154.1804,
  "lng": 278876.5578
 },
 {
  "id": 682,
  "name": "마마스미독 강아지분양 일산점",
  "address": "경기도 고양시 일산동구 식사동  ",
  "lat": 183503.6762,
  "lng": 463595.3467
 },
 {
  "id": 683,
  "name": "러브댕댕(LOVE DAENG DAENG)",
  "address": "대전광역시 서구 도안동  자작나무 ",
  "lat": 230666.9134,
  "lng": 313232.1213
 },
 {
  "id": 684,
  "name": "펫츠아일랜드",
  "address": "부산광역시 연제구 연산동  ",
  "lat": 391835.881,
  "lng": 189390.4681
 },
 {
  "id": 685,
  "name": "뽀송뽀송 강아지 미용실",
  "address": "부산광역시 해운대구 반송동  ",
  "lat": 396060.5587,
  "lng": 194707.5448
 },
 {
  "id": 686,
  "name": "엠코코(Mcoco)",
  "address": "서울특별시 용산구 용문동  호",
  "lat": 196508.325,
  "lng": 448348.816
 },
 {
  "id": 687,
  "name": "또, 보개",
  "address": "전라남도 목포시 산정동  ",
  "lat": 143168.5717,
  "lng": 144958.8797
 },
 {
  "id": 688,
  "name": "동백살롱",
  "address": "전라북도 군산시 수송동  층 호",
  "lat": 174488.78,
  "lng": 273359.5
 },
 {
  "id": 689,
  "name": "야옹아 멍멍해봐",
  "phone": "041-932-0038",
  "address": "충청남도 보령시 동대동  ",
  "lat": 164797.9708,
  "lng": 316244.515
 },
 {
  "id": 690,
  "name": "공생",
  "phone": "031-923-5766",
  "address": "경기도 고양시 일산서구 덕이동  양우로데오메인타운 B동 호",
  "lat": 178527.7633,
  "lng": 465638.3093
 },
 {
  "id": 691,
  "name": "참사랑동물병원",
  "address": "경기도 수원시 영통구 망포동  델타빌딩 ",
  "lat": 204995.0326,
  "lng": 415167.7106
 },
 {
  "id": 692,
  "name": "개린이세상",
  "phone": "052-269-7177",
  "address": "울산광역시 남구 삼산동  제이 큐브 ",
  "lat": 412569.9017,
  "lng": 229320.9635
 },
 {
  "id": 693,
  "name": "살롱드삐삐",
  "address": "서울특별시 은평구 신사동  예동빌딩 ",
  "lat": 192306.4741,
  "lng": 455026.166
 },
 {
  "id": 694,
  "name": "시크쁘숑",
  "address": "서울특별시 노원구 하계동  장미아파트 ",
  "lat": 205920.8711,
  "lng": 459040.42
 },
 {
  "id": 695,
  "name": "그루밍 다올(grooming daol)",
  "address": "제주특별자치도 제주시 연동  ",
  "lat": 153229.6353,
  "lng": -488.0081322
 },
 {
  "id": 696,
  "name": "멍키매직",
  "address": "경상북도 경산시 옥산동  ",
  "lat": 355543.9709,
  "lng": 259596.504
 },
 {
  "id": 697,
  "name": "리틀댕댕",
  "address": "경상북도 경산시 옥산동  ",
  "lat": 355687.5545,
  "lng": 259769.0249
 },
 {
  "id": 698,
  "name": "코아루 애견",
  "address": "경상북도 포항시 남구 오천읍 문덕리  신문덕코아루 아파트 상가 ",
  "lat": 417277.8908,
  "lng": 275184.7442
 },
 {
  "id": 699,
  "name": "주식회사 개신남 7호점",
  "address": "충청남도 천안시 동남구 신부동  ",
  "lat": 214570.3629,
  "lng": 369046.5721
 },
 {
  "id": 701,
  "name": "베이비숑 펫살롱",
  "address": "부산광역시 사하구 하단동  황도주택 ",
  "lat": 379589.41,
  "lng": 179967.1404
 },
 {
  "id": 702,
  "name": "송송그루밍",
  "address": "부산광역시 남구 용호동  엘지메트로시티 ",
  "lat": 392474.5781,
  "lng": 183052.2112
 },
 {
  "id": 703,
  "name": "윤댕댕살롱",
  "address": "서울특별시 강서구 내발산동  호",
  "lat": 185584.6465,
  "lng": 450276.7993
 },
 {
  "id": 704,
  "name": "몽실묭실",
  "phone": "02-6949-2733",
  "address": "서울특별시 강서구 화곡동  ",
  "lat": 187285.1012,
  "lng": 448167.4638
 },
 {
  "id": 705,
  "name": "댕글",
  "address": "충청북도 청주시 청원구 율량동  호",
  "lat": 244569.0523,
  "lng": 351908.1243
 },
 {
  "id": 706,
  "name": "동글동글 애견미용실",
  "address": "경상남도 창원시 마산합포구 홍문동  ",
  "lat": 341911.203,
  "lng": 188149.5347
 },
 {
  "id": 707,
  "name": "안녕 댕댕아",
  "address": "경기도 포천시 소흘읍 송우리  ",
  "lat": 212857.3236,
  "lng": 481976.7623
 },
 {
  "id": 708,
  "name": "THE 예쁘개",
  "address": "충청북도 충주시 목행동  세중참사랑아파트 상가 호",
  "lat": 281670.7453,
  "lng": 389521.2252
 },
 {
  "id": 709,
  "name": "황제애견",
  "phone": "051-758-0031",
  "address": "부산광역시 수영구 수영동  ",
  "lat": 392537.271,
  "lng": 187512.0312
 },
 {
  "id": 710,
  "name": "뽀독뽀독애견샵",
  "address": "부산광역시 동래구 명장동  ",
  "lat": 391984.6189,
  "lng": 191464.3826
 },
 {
  "id": 711,
  "name": "모이",
  "address": "서울특별시 동대문구 용두동  청계 한양아이클래스 ",
  "lat": 202443.6469,
  "lng": 452049.1592
 },
 {
  "id": 712,
  "name": "다듬, 희그루밍",
  "address": "충청남도 당진시 읍내동  ",
  "lat": 167695.4475,
  "lng": 376484.7183
 },
 {
  "id": 713,
  "name": "왈왈애견",
  "phone": "031-763-4389",
  "address": "경기도 광주시 오포읍 양벌리  ",
  "lat": 222383.8795,
  "lng": 431529.2965
 },
 {
  "id": 714,
  "name": "왈왈 살롱",
  "address": "경상남도 양산시 물금읍 가촌리  ",
  "lat": 381799.9085,
  "lng": 203956.2826
 },
 {
  "id": 715,
  "name": "루피살롱",
  "address": "서울특별시 강남구 논현동  ",
  "lat": 202161.2354,
  "lng": 444814.4401
 },
 {
  "id": 716,
  "name": "마이뷰티독",
  "address": "서울특별시 성북구 길음동  래미안길음센터피스 상가동 호",
  "lat": 202337.783,
  "lng": 456539.1907
 },
 {
  "id": 717,
  "name": "리브동물의료센터",
  "phone": "051-552-5553",
  "address": "부산광역시 동래구 온천동  ",
  "lat": 388853.6162,
  "lng": 191635.4637
 },
 {
  "id": 718,
  "name": "멍플러피",
  "address": "강원도 원주시 반곡동  ",
  "lat": 287685.4534,
  "lng": 425587.8632
 },
 {
  "id": 719,
  "name": "그루밍라운지",
  "address": "경기도 용인시 기흥구 신갈동  트윈시스템 ",
  "lat": 209288.8824,
  "lng": 419556.9637
 },
 {
  "id": 720,
  "name": "반하나캣",
  "address": "경기도 고양시 덕양구 원흥동  ",
  "lat": 189058.6744,
  "lng": 461209.5703
 },
 {
  "id": 721,
  "name": "헤이제니",
  "address": "경기도 수원시 장안구 조원동  ",
  "lat": 201450.0954,
  "lng": 421916.8596
 },
 {
  "id": 722,
  "name": "독스맘",
  "address": "경기도 화성시 봉담읍 상리  ",
  "lat": 195039.0213,
  "lng": 413465.8611
 },
 {
  "id": 723,
  "name": "Shoo Dog 슈독 펫살롱",
  "address": "경기도 화성시 봉담읍 왕림리  ",
  "lat": 194778.893,
  "lng": 410774.7585
 },
 {
  "id": 724,
  "name": "슈슈독",
  "address": "경상남도 김해시 율하동  ",
  "lat": 365178.552,
  "lng": 187074.1892
 },
 {
  "id": 725,
  "name": "몽실이네",
  "address": "전라남도 광양시 중동  ",
  "lat": 263722.9765,
  "lng": 160355.6358
 },
 {
  "id": 726,
  "name": "펫즈(PETZZ)",
  "address": "전라북도 전주시 완산구 중화산동가  ",
  "lat": 211065.735,
  "lng": 258078.5831
 },
 {
  "id": 727,
  "name": "멍멍이미용실",
  "address": "전라북도 전주시 완산구 평화동가  평화동골드클래스 ",
  "lat": 211607.9876,
  "lng": 253739.2163
 },
 {
  "id": 728,
  "name": "예뿌개",
  "phone": "031-943-8270",
  "address": "경기도 파주시 문발동  ",
  "lat": 174047.952,
  "lng": 469465.8964
 },
 {
  "id": 729,
  "name": "개예쁨",
  "address": "경기도 파주시 목동동  ",
  "lat": 176940.0239,
  "lng": 468907.8046
 },
 {
  "id": 730,
  "name": "청담펫살롱",
  "address": "경기도 평택시 비전동  ",
  "lat": 209944.8098,
  "lng": 388621.5801
 },
 {
  "id": 731,
  "name": "따숨",
  "address": "경기도 부천시 범박동  보람월드프라자 ",
  "lat": 183073.5479,
  "lng": 440864.1571
 },
 {
  "id": 732,
  "name": "마이펫 부티크",
  "address": "경상남도 함안군 가야읍 도항리  브레인단과학원 ",
  "lat": 327632.3579,
  "lng": 198662.0073
 },
 {
  "id": 733,
  "name": "봄날의 강아지",
  "address": "경상남도 양산시 평산동  양산 평산 KCC스위첸 ",
  "lat": 395587.6672,
  "lng": 210911.0418
 },
 {
  "id": 734,
  "name": "깡이네 이발소",
  "address": "경상남도 양산시 삼호동  ",
  "lat": 397362.1694,
  "lng": 214211.766
 },
 {
  "id": 735,
  "name": "코즈몽",
  "address": "경기도 고양시 덕양구 삼송동  호",
  "lat": 190231.5843,
  "lng": 460923.2933
 },
 {
  "id": 736,
  "name": "댕댕#",
  "address": "광주광역시 광산구 신가동  아름마을 휴먼시아 ",
  "lat": 183574.1314,
  "lng": 186816.0568
 },
 {
  "id": 737,
  "name": "행복한 동물병원",
  "phone": "051-714-2435",
  "address": "부산광역시 사하구 신평동  ",
  "lat": 380804.6773,
  "lng": 178043.9189
 },
 {
  "id": 738,
  "name": "비비안나더비욘드",
  "address": "서울특별시 송파구 석촌동  ",
  "lat": 208650.3657,
  "lng": 444585.2293
 },
 {
  "id": 739,
  "name": "잔다냥 연희점",
  "phone": "02-332-9202",
  "address": "서울특별시 서대문구 연희동  층 호",
  "lat": 193930.6863,
  "lng": 451751.371
 },
 {
  "id": 740,
  "name": "까까줄개",
  "address": "서울특별시 중랑구 신내동  화성,두산아파트 ",
  "lat": 208330.3542,
  "lng": 456814.9225
 },
 {
  "id": 741,
  "name": "마벨독",
  "address": "세종특별자치시 보람동  스타힐타워Ⅱ B동 호",
  "lat": 225892.3272,
  "lng": 330884.2083
 },
 {
  "id": 742,
  "name": "힐펫",
  "phone": "031-375-5373",
  "address": "경기도 화성시 목동  힐스테이트 동탄 ",
  "lat": 210683.6023,
  "lng": 409203.7862
 },
 {
  "id": 743,
  "name": "바르다 펫 부산센텀점",
  "address": "부산광역시 수영구 수영동  ",
  "lat": 393336.8784,
  "lng": 187343.932
 },
 {
  "id": 744,
  "name": "아이조은동물병원",
  "address": "서울특별시 도봉구 쌍문동  ",
  "lat": 202807.2309,
  "lng": 461791.7196
 },
 {
  "id": 745,
  "name": "편안하개",
  "address": "서울특별시 성북구 하월곡동  ",
  "lat": 203197.5626,
  "lng": 455827.8178
 },
 {
  "id": 746,
  "name": "한남메이펫",
  "address": "서울특별시 용산구 한남동  한남아이파크 호",
  "lat": 200571.7259,
  "lng": 447793.9241
 },
 {
  "id": 747,
  "name": "플루피 그루밍",
  "address": "경상북도 포항시 남구 대잠동  층 ",
  "lat": 411421.7981,
  "lng": 281661.7843
 },
 {
  "id": 748,
  "name": "영심이네 반려동물 미용실",
  "address": "전라남도 무안군 삼향읍 남악리  골든스위트 호",
  "lat": 151101.0448,
  "lng": 145882.887
 },
 {
  "id": 749,
  "name": "루피펫살롱",
  "address": "충청북도 제천시 하소동  ",
  "lat": 306131.3612,
  "lng": 404125.5096
 },
 {
  "id": 750,
  "name": "후즈독",
  "address": "경기도 하남시 망월동  ",
  "lat": 216116.4226,
  "lng": 451857.2859
 },
 {
  "id": 751,
  "name": "하이뭉치(Hi Moongchi)",
  "address": "경기도 평택시 동삭동  The Sharp 지제역 센트럴파크 BL ",
  "lat": 208125.7758,
  "lng": 390810.58
 },
 {
  "id": 752,
  "name": "멍필드",
  "phone": "052-243-9392",
  "address": "울산광역시 중구 성안동  ",
  "lat": 409424.8945,
  "lng": 232961.1826
 },
 {
  "id": 753,
  "name": "보듬 반려견미용실",
  "address": "부산광역시 사하구 당리동  한성금강빌라 ",
  "lat": 379909.7849,
  "lng": 180200.7877
 },
 {
  "id": 754,
  "name": "신나호텔",
  "address": "전라북도 전주시 덕진구 인후동가  ",
  "lat": 214510.2477,
  "lng": 259400.3393
 },
 {
  "id": 755,
  "name": "씻고가개",
  "address": "경기도 파주시 목동동  ",
  "lat": 177579.2618,
  "lng": 469868.7449
 },
 {
  "id": 756,
  "name": "댕이냥이살롱",
  "address": "경기도 시흥시 대야동  아크로힐 더 파크 ",
  "lat": 181166.6876,
  "lng": 438988.8801
 },
 {
  "id": 757,
  "name": "호텔댕루나",
  "address": "경기도 구리시 갈매동  ",
  "lat": 210628.8924,
  "lng": 458682.3171
 },
 {
  "id": 758,
  "name": "나봄",
  "phone": "031-204-8458",
  "address": "경기도 수원시 권선구 구운동  ",
  "lat": 197525.2001,
  "lng": 419914.1955
 },
 {
  "id": 759,
  "name": "댕댕살롱",
  "address": "울산광역시 북구 매곡동  월드메르디앙 월드시티 ",
  "lat": 413828.4454,
  "lng": 240568.1202
 },
 {
  "id": 760,
  "name": "그린동물병원",
  "phone": "031-366-7970",
  "address": "경기도 화성시 새솔동  ",
  "lat": 183880.0345,
  "lng": 420121.4448
 },
 {
  "id": 761,
  "name": "개ZOO아",
  "address": "경기도 화성시 봉담읍 동화리  ",
  "lat": 196472.0381,
  "lng": 413195.2774
 },
 {
  "id": 762,
  "name": "나무네멍실",
  "address": "광주광역시 북구 일곡동  ",
  "lat": 190127.7355,
  "lng": 189858.0316
 },
 {
  "id": 763,
  "name": "하얀강아지",
  "phone": "032-818-7995",
  "address": "인천광역시 연수구 연수동  호",
  "lat": 171807.2858,
  "lng": 435982.0685
 },
 {
  "id": 764,
  "name": "쁘띠몽펫샵",
  "phone": "051-754-2022",
  "address": "부산광역시 수영구 수영동  ",
  "lat": 392517.3013,
  "lng": 187587.6819
 },
 {
  "id": 765,
  "name": "메이드독",
  "address": "서울특별시 강동구 암사동  층 ",
  "lat": 211069.2109,
  "lng": 449599.1575
 },
 {
  "id": 766,
  "name": "앤디펫살롱",
  "address": "경기도 양주시 고읍동  TS푸른솔차아파트 ",
  "lat": 207030.4707,
  "lng": 477610.7306
 },
 {
  "id": 767,
  "name": "강아지미용실",
  "address": "경상남도 창녕군 영산면 성내리  ",
  "lat": 339022.2219,
  "lng": 218510.353
 },
 {
  "id": 768,
  "name": "누가꽃이개",
  "address": "전라북도 전주시 덕진구 덕진동가  ",
  "lat": 209802.1669,
  "lng": 260619.8964
 },
 {
  "id": 769,
  "name": "플러피펫",
  "address": "대전광역시 서구 만년동  ",
  "lat": 233524.3431,
  "lng": 318548.3576
 },
 {
  "id": 770,
  "name": "워너독",
  "address": "인천광역시 연수구 동춘동  롯데아파트 상가동 호",
  "lat": 171077.3186,
  "lng": 434676.7496
 },
 {
  "id": 771,
  "name": "쁘띠멍",
  "address": "서울특별시 강동구 천호동  ",
  "lat": 212244.4562,
  "lng": 448841.6269
 },
 {
  "id": 772,
  "name": "아띠독",
  "address": "경기도 화성시 반송동  ",
  "lat": 205406.4431,
  "lng": 411819.1154
 },
 {
  "id": 773,
  "name": "플로라 그루밍독",
  "address": "경기도 용인시 기흥구 동백동  순석빌딩 ",
  "lat": 213367.1856,
  "lng": 419971.6019
 },
 {
  "id": 774,
  "name": "아드망",
  "address": "경기도 고양시 덕양구 화정동  세일빌딩 호",
  "lat": 184974.5337,
  "lng": 458769.4232
 },
 {
  "id": 775,
  "name": "똥강아지",
  "phone": "031-438-0329",
  "address": "경기도 안산시 상록구 이동  호",
  "lat": 187673.2175,
  "lng": 422536.9437
 },
 {
  "id": 776,
  "name": "까꼬댕댕",
  "address": "울산광역시 울주군 언양읍 동부리  호",
  "lat": 392011.3848,
  "lng": 232108.0419
 },
 {
  "id": 777,
  "name": "달동이발소",
  "address": "울산광역시 남구 달동  ",
  "lat": 411583.8611,
  "lng": 229164.6803
 },
 {
  "id": 778,
  "name": "테리몽 하우스",
  "address": "부산광역시 해운대구 좌동  화창프라자 ",
  "lat": 398209.5259,
  "lng": 187911.6878
 },
 {
  "id": 779,
  "name": "아띠몽",
  "address": "부산광역시 해운대구 반여동  반여동주차빌딩 ",
  "lat": 393327.6894,
  "lng": 191141.117
 },
 {
  "id": 780,
  "name": "펫퍼센트",
  "address": "부산광역시 부산진구 연지동  ",
  "lat": 387541.2854,
  "lng": 187844.9298
 },
 {
  "id": 781,
  "name": "로우포우신월(rawpaw)",
  "address": "서울특별시 양천구 신월동  ",
  "lat": 185016.131,
  "lng": 447481.1429
 },
 {
  "id": 782,
  "name": "올리브동물병원",
  "phone": "02-391-7502",
  "address": "서울특별시 종로구 홍지동  ",
  "lat": 196308.2156,
  "lng": 455218.7575
 },
 {
  "id": 783,
  "name": "몽실멍실",
  "address": "경상남도 거제시 아주동  ",
  "lat": 354291.4895,
  "lng": 153174.9808
 },
 {
  "id": 784,
  "name": "그리다 펫살롱",
  "address": "충청남도 천안시 서북구 백석동  ",
  "lat": 210703.6041,
  "lng": 369536.6467
 },
 {
  "id": 785,
  "name": "언니네 애견샵",
  "address": "충청북도 청주시 상당구 용암동  ",
  "lat": 245335.8674,
  "lng": 346138.0099
 },
 {
  "id": 786,
  "name": "예뻐지개 댕댕아",
  "address": "충청남도 당진시 신평면 금천리  ",
  "lat": 179856.6244,
  "lng": 375880.351
 },
 {
  "id": 787,
  "name": "하늘하개",
  "address": "경상남도 창원시 진해구 용원동  센트럴타워 ",
  "lat": 365529.0351,
  "lng": 177967.2691
 },
 {
  "id": 788,
  "name": "반짝반짝내작은개",
  "address": "경상남도 김해시 관동동  ",
  "lat": 365205.6153,
  "lng": 187853.9031
 },
 {
  "id": 789,
  "name": "디어멍멍",
  "address": "경상남도 김해시 삼문동  ",
  "lat": 363323.9919,
  "lng": 190122.9847
 },
 {
  "id": 790,
  "name": "메리도그",
  "address": "강원도 원주시 단계동  ",
  "lat": 281201.2155,
  "lng": 428509.1485
 },
 {
  "id": 791,
  "name": "스위프트살롱",
  "address": "경기도 하남시 망월동  힐스테이트에코미사강변 호",
  "lat": 217443.0693,
  "lng": 451498.9474
 },
 {
  "id": 792,
  "name": "뽀송하개",
  "address": "경기도 시흥시 배곧동  배곧중흥에스클래스 ",
  "lat": 176212.9339,
  "lng": 431393.3565
 },
 {
  "id": 793,
  "name": "요미요미 강아지미용실",
  "address": "부산광역시 북구 금곡동  ",
  "lat": 383512.6239,
  "lng": 198121.6306
 },
 {
  "id": 794,
  "name": "띠아몽",
  "address": "경상북도 김천시 덕곡동  ",
  "lat": 304113.1874,
  "lng": 291117.941
 },
 {
  "id": 795,
  "name": "이쁘다 멍",
  "address": "전라북도 전주시 덕진구 송천동가  ",
  "lat": 210292.8201,
  "lng": 262909.0166
 },
 {
  "id": 796,
  "name": "묘 미 앤",
  "address": "경기도 하남시 망월동  호",
  "lat": 216712.9359,
  "lng": 451163.0711
 },
 {
  "id": 797,
  "name": "씻고놀개",
  "address": "경기도 부천시 원종동  한울아파트 ",
  "lat": 182617.5162,
  "lng": 446999.5173
 },
 {
  "id": 798,
  "name": "짱짱이네",
  "address": "대구광역시 달서구 감삼동  ",
  "lat": 339179.3067,
  "lng": 261599.6116
 },
 {
  "id": 799,
  "name": "유이하우스",
  "address": "부산광역시 해운대구 반송동  ",
  "lat": 395486.4694,
  "lng": 194131.6111
 },
 {
  "id": 800,
  "name": "그 남자의 grooming # 공간",
  "address": "서울특별시 은평구 구산동  연수화실 ",
  "lat": 191839.4057,
  "lng": 456842.4726
 },
 {
  "id": 801,
  "name": "마시멜로냥",
  "address": "경기도 여주시 오학동  ",
  "lat": 256870.7544,
  "lng": 423370.4288
 },
 {
  "id": 802,
  "name": "도그래스(DOGRASS)",
  "address": "충청남도 당진시 읍내동  서문전실 ",
  "lat": 167120.3734,
  "lng": 377807.4663
 },
 {
  "id": 803,
  "name": "털뭉치들",
  "address": "경기도 남양주시 진접읍 장현리  ",
  "lat": 215798.7254,
  "lng": 468245.91
 },
 {
  "id": 804,
  "name": "JIWOO GROMMING",
  "address": "경기도 고양시 일산동구 식사동  ",
  "lat": 183508.8087,
  "lng": 463827.622
 },
 {
  "id": 805,
  "name": "그루몽",
  "address": "인천광역시 서구 청라동  광영 스너그시티 청라 ",
  "lat": 167042.1556,
  "lng": 447868.803
 },
 {
  "id": 806,
  "name": "무아펫살롱",
  "address": "부산광역시 남구 문현동  ",
  "lat": 388557.1739,
  "lng": 183989.634
 },
 {
  "id": 807,
  "name": "강아지이발소",
  "address": "경상남도 김해시 외동  코아빌딩 ",
  "lat": 369793.5387,
  "lng": 194192.5361
 },
 {
  "id": 808,
  "name": "개들의 집 펫살롱",
  "address": "경기도 시흥시 은행동  호수의 아침 ",
  "lat": 182601.4802,
  "lng": 438152.0513
 },
 {
  "id": 809,
  "name": "모란모란",
  "address": "경기도 안산시 상록구 이동  호",
  "lat": 187551.3612,
  "lng": 422509.8863
 },
 {
  "id": 810,
  "name": "개미애견미용실",
  "address": "경상남도 진주시 가좌동  스카이 시티프라디움 ",
  "lat": 301673.9743,
  "lng": 184485.7764
 },
 {
  "id": 811,
  "name": "롯지네펫살롱",
  "address": "경상북도 경산시 하양읍 동서리  천일약국 ",
  "lat": 364681.9326,
  "lng": 269851.0497
 },
 {
  "id": 812,
  "name": "이쁘개 해줄개",
  "address": "강원도 강릉시 홍제동  엘에이치미디어촌단지 ",
  "lat": 364511.1612,
  "lng": 474088.6907
 },
 {
  "id": 813,
  "name": "독스하트 구리",
  "address": "경기도 구리시 인창동  층 ",
  "lat": 212140.9082,
  "lng": 457177.8609
 },
 {
  "id": 814,
  "name": "댕댕이의 하루",
  "phone": "070-4647-4328",
  "address": "경기도 안양시 동안구 호계동  호",
  "lat": 195324.4865,
  "lng": 431256.0703
 },
 {
  "id": 815,
  "name": "리쌀롱",
  "address": "경기도 수원시 권선구 금곡동  아주리센 테라스파크 ",
  "lat": 196006.7932,
  "lng": 419342.655
 },
 {
  "id": 816,
  "name": "My Merriest Moment",
  "address": "대구광역시 남구 대명동  ",
  "lat": 341610.4719,
  "lng": 260533.9107
 },
 {
  "id": 817,
  "name": "제주멍",
  "address": "제주특별자치도 서귀포시 서호동  ",
  "lat": 154541.6252,
  "lng": -26865.82281
 },
 {
  "id": 818,
  "name": "신세계 애견미용",
  "address": "경상북도 포항시 남구 해도동  층 ",
  "lat": 413678.2297,
  "lng": 282016.4119
 },
 {
  "id": 819,
  "name": "펫프린",
  "address": "경기도 평택시 용이동  ",
  "lat": 211250.5705,
  "lng": 388173.163
 },
 {
  "id": 820,
  "name": "멍멍사우나",
  "address": "경기도 평택시 고덕동  ",
  "lat": 203588.4285,
  "lng": 392692.594
 },
 {
  "id": 821,
  "name": "슈나우펫",
  "address": "경기도 부천시 중동  래미안 부천 중동 ",
  "lat": 180163.862,
  "lng": 445118.3987
 },
 {
  "id": 822,
  "name": "릴리 펫스파",
  "address": "경기도 수원시 장안구 조원동  ",
  "lat": 201235.2796,
  "lng": 422219.5035
 },
 {
  "id": 823,
  "name": "김은미애견미용",
  "address": "울산광역시 중구 태화동  삼익세라믹아파트 ",
  "lat": 408459.0352,
  "lng": 230500.8488
 },
 {
  "id": 824,
  "name": "뉴데이 반려견 미용실",
  "address": "인천광역시 부평구 부개동  뉴서울아파트 상가동 층 호 ",
  "lat": 176583.8569,
  "lng": 444909.7389
 },
 {
  "id": 825,
  "name": "유어펫그루밍",
  "address": "인천광역시 남동구 논현동  상가 층 호",
  "lat": 176474.3405,
  "lng": 433913.8898
 },
 {
  "id": 826,
  "name": "킁킁펫살롱",
  "address": "부산광역시 동래구 명륜동  ",
  "lat": 390025.651,
  "lng": 192683.3174
 },
 {
  "id": 827,
  "name": "봄동살롱",
  "address": "서울특별시 성북구 종암동  층 ",
  "lat": 203394.3775,
  "lng": 455045.9494
 },
 {
  "id": 828,
  "name": "우리강아지",
  "address": "제주특별자치도 서귀포시 동홍동  세기아파트 ",
  "lat": 160358.5754,
  "lng": -26907.3581
 },
 {
  "id": 829,
  "name": "몽스파",
  "address": "강원도 춘천시 퇴계동  홈플러스 층 ",
  "lat": 264597.1919,
  "lng": 483368.2905
 },
 {
  "id": 830,
  "name": "미사 센트럴 동물병원",
  "address": "경기도 하남시 풍산동  상아프라자 호",
  "lat": 216583.1214,
  "lng": 450640.4772
 },
 {
  "id": 831,
  "name": "과천우주동물병원",
  "phone": "02-6949-0883",
  "address": "경기도 과천시 원문동  호",
  "lat": 199091.901,
  "lng": 435651.9778
 },
 {
  "id": 832,
  "name": "리틀애견타운",
  "address": "대전광역시 동구 낭월동  ",
  "lat": 241901.7937,
  "lng": 308338.5902
 },
 {
  "id": 833,
  "name": "인누온",
  "address": "부산광역시 동래구 온천동  ",
  "lat": 389080.5567,
  "lng": 192592.0645
 },
 {
  "id": 834,
  "name": "어서오개",
  "phone": "02-2202-7399",
  "address": "서울특별시 송파구 방이동  베네치아 ",
  "lat": 210357.414,
  "lng": 445706.3776
 },
 {
  "id": 835,
  "name": "퍼피안",
  "address": "충청북도 청주시 청원구 사천동  호",
  "lat": 242725.8742,
  "lng": 352153.4981
 },
 {
  "id": 836,
  "name": "RAUM PUPPY",
  "address": "강원도 속초시 교동  ",
  "lat": 337494.4429,
  "lng": 523047.8055
 },
 {
  "id": 837,
  "name": "뉴케어 동물병원",
  "address": "경기도 용인시 기흥구 영덕동  ",
  "lat": 206485.835,
  "lng": 419146.575
 },
 {
  "id": 838,
  "name": "발사탕 펫살롱",
  "address": "광주광역시 서구 화정동  ",
  "lat": 189502.7112,
  "lng": 182950.6664
 },
 {
  "id": 839,
  "name": "디어뭉",
  "address": "인천광역시 계양구 작전동  도두리마을 동보아파트 호",
  "lat": 176890.4287,
  "lng": 447824.774
 },
 {
  "id": 840,
  "name": "똑띠네",
  "address": "인천광역시 중구 도원동  ",
  "lat": 167917.4953,
  "lng": 440480.3069
 },
 {
  "id": 841,
  "name": "레이지독",
  "address": "부산광역시 영도구 청학동  ",
  "lat": 388226.6251,
  "lng": 179181.3887
 },
 {
  "id": 842,
  "name": "댕댕 아일랜드",
  "address": "제주특별자치도 제주시 화북이동  ",
  "lat": 160204.7501,
  "lng": 1944.726501
 },
 {
  "id": 843,
  "name": "꿈냥이",
  "address": "제주특별자치도 제주시 구좌읍 세화리  ",
  "lat": 186917.0209,
  "lng": 2622.938708
 },
 {
  "id": 844,
  "name": "멍샬롬",
  "phone": "031-8015-4585",
  "address": "경기도 화성시 반송동  다경프라자 ",
  "lat": 205229.245,
  "lng": 411212.71
 },
 {
  "id": 845,
  "name": "개스트펫살롱",
  "address": "충청남도 태안군 안면읍 승언리  승언리마을회관 ",
  "lat": 141343.2522,
  "lng": 335358.2176
 },
 {
  "id": 846,
  "name": "달콤하개 펫미용",
  "address": "경기도 용인시 기흥구 보정동  리베로 ",
  "lat": 210062.9461,
  "lng": 424209.2006
 },
 {
  "id": 847,
  "name": "꿀댕",
  "address": "경기도 용인시 기흥구 서천동  서천마을 휴먼시아 ",
  "lat": 206244.9653,
  "lng": 415134.4456
 },
 {
  "id": 848,
  "name": "웃개",
  "address": "경기도 안산시 상록구 본오동  상록빌딩 호",
  "lat": 187724.0612,
  "lng": 422142.1924
 },
 {
  "id": 849,
  "name": "도그마루 강아지 고양이 부산점",
  "address": "부산광역시 남구 대연동  ",
  "lat": 390444.2024,
  "lng": 183795.5994
 },
 {
  "id": 850,
  "name": "개조아#",
  "address": "충청남도 당진시 읍내동  ",
  "lat": 166694.1994,
  "lng": 376817.9919
 },
 {
  "id": 851,
  "name": "It's 로빈",
  "address": "전라북도 익산시 신동  ",
  "lat": 196583.7706,
  "lng": 273111.6054
 },
 {
  "id": 852,
  "name": "애견하라",
  "address": "경기도 고양시 일산동구 정발산동  ",
  "lat": 179970.8227,
  "lng": 462926.2826
 },
 {
  "id": 853,
  "name": "밍그루밍",
  "address": "경기도 안양시 동안구 비산동  상가 동 호",
  "lat": 194448.5816,
  "lng": 432832.6735
 },
 {
  "id": 854,
  "name": "송댕송댕",
  "address": "광주광역시 서구 쌍촌동  상무 푸르지오 ",
  "lat": 186727.4106,
  "lng": 182622.8585
 },
 {
  "id": 855,
  "name": "뽀독뽀독",
  "address": "인천광역시 연수구 청학동  부흥빌라 층 호",
  "lat": 170187.047,
  "lng": 436244.9245
 },
 {
  "id": 856,
  "name": "노아네",
  "address": "서울특별시 서초구 방배동  ",
  "lat": 198646.6008,
  "lng": 442555.9589
 },
 {
  "id": 857,
  "name": "댕댕마실",
  "phone": "070-4324-2802",
  "address": "서울특별시 강북구 우이동  층 ",
  "lat": 201049.5834,
  "lng": 460880.2596
 },
 {
  "id": 858,
  "name": "에브리댕",
  "address": "세종특별자치시 소담동  지엘플렉스 호",
  "lat": 226946.3101,
  "lng": 331602.2547
 },
 {
  "id": 859,
  "name": "몽톡",
  "address": "경기도 남양주시 별내동  ",
  "lat": 211303.4866,
  "lng": 461827.4687
 },
 {
  "id": 860,
  "name": "비주얼펫살롱",
  "address": "광주광역시 북구 양산동  ",
  "lat": 188890.9255,
  "lng": 189922.7677
 },
 {
  "id": 861,
  "name": "블링멍",
  "address": "서울특별시 마포구 공덕동  삼성래미안공덕차아파트 ",
  "lat": 196361.6934,
  "lng": 449862.7116
 },
 {
  "id": 862,
  "name": "역전의 댕댕이",
  "address": "경상남도 창원시 진해구 대흥동  ",
  "lat": 351153.6202,
  "lng": 184759.0123
 },
 {
  "id": 863,
  "name": "미용하개, 놀다가개",
  "address": "경상북도 김천시 율곡동  ",
  "lat": 306344.0427,
  "lng": 292125.7883
 },
 {
  "id": 864,
  "name": "뉴케어 동물병원",
  "address": "경기도 용인시 기흥구 영덕동  ",
  "lat": 206485.835,
  "lng": 419146.575
 },
 {
  "id": 865,
  "name": "안다펫살롱",
  "address": "경기도 평택시 독곡동  ",
  "lat": 205881.904,
  "lng": 398262.6817
 },
 {
  "id": 866,
  "name": "펫하임",
  "phone": "031-843-4200",
  "address": "경기도 의정부시 의정부동  ",
  "lat": 204342.2335,
  "lng": 471008.591
 },
 {
  "id": 867,
  "name": "그루밍포유",
  "address": "경기도 의정부시 민락동  호",
  "lat": 208326.3461,
  "lng": 471583.6392
 },
 {
  "id": 868,
  "name": "멍쌤 펫 살롱",
  "address": "경상남도 창원시 성산구 사파동  사파동성아파트 ",
  "lat": 355105.9286,
  "lng": 192476.072
 },
 {
  "id": 869,
  "name": "호두네 애견미용실",
  "phone": "041-856-0049",
  "address": "충청남도 공주시 신관동  ",
  "lat": 211968.4298,
  "lng": 330248.0879
 },
 {
  "id": 870,
  "name": "고상하개",
  "address": "강원도 원주시 단구동  동보 노빌리티타워 골드 ",
  "lat": 284326.4063,
  "lng": 425591.7987
 },
 {
  "id": 871,
  "name": "개신남 8호점",
  "address": "경기도 시흥시 장현동  청구아파트 ",
  "lat": 182156.6563,
  "lng": 430870.8207
 },
 {
  "id": 872,
  "name": "두루몽실",
  "address": "경기도 수원시 권선구 권선동  하우스타  ",
  "lat": 202039.6236,
  "lng": 417117.5301
 },
 {
  "id": 873,
  "name": "뚜뚜보떼 펫살롱",
  "address": "인천광역시 서구 당하동  호",
  "lat": 173335.6193,
  "lng": 454563.3955
 },
 {
  "id": 874,
  "name": "THE멍멍",
  "address": "경기도 광주시 경안동  ",
  "lat": 222677.3433,
  "lng": 434184.8718
 },
 {
  "id": 875,
  "name": "도브리댕",
  "address": "충청남도 천안시 동남구 청수동  ",
  "lat": 213587.9748,
  "lng": 365212.732
 },
 {
  "id": 876,
  "name": "몽실",
  "address": "강원도 춘천시 퇴계동  호",
  "lat": 264595.9434,
  "lng": 484556.0494
 },
 {
  "id": 877,
  "name": "옳지",
  "address": "경기도 남양주시 별내동  ",
  "lat": 210206.1125,
  "lng": 462630.918
 },
 {
  "id": 878,
  "name": "땡스마미",
  "address": "경기도 부천시 소사본동  주공아파트 ",
  "lat": 182472.9468,
  "lng": 440661.0736
 },
 {
  "id": 879,
  "name": "푸드르르",
  "address": "경기도 성남시 중원구 도촌동  도촌대덕프라자 호",
  "lat": 213275.5637,
  "lng": 434797.8254
 },
 {
  "id": 880,
  "name": "뽀도독",
  "address": "경기도 수원시 권선구 금곡동  비즈웍스 ",
  "lat": 194772.3713,
  "lng": 419039.0403
 },
 {
  "id": 881,
  "name": "몽또아",
  "address": "충청남도 천안시 서북구 두정동  아크로텔천안두정 ",
  "lat": 212608.715,
  "lng": 370038.888
 },
 {
  "id": 882,
  "name": "몽글펫",
  "phone": "031-523-2260",
  "address": "경기도 남양주시 오남읍 양지리  ",
  "lat": 216865.5092,
  "lng": 466226.5478
 },
 {
  "id": 883,
  "name": "펫 니르",
  "address": "경기도 수원시 장안구 영화동  ",
  "lat": 200382.8194,
  "lng": 420542.2722
 },
 {
  "id": 884,
  "name": "개린이 집합소",
  "address": "인천광역시 부평구 산곡동  층 ",
  "lat": 174433.6937,
  "lng": 444681.6483
 },
 {
  "id": 885,
  "name": "멍돌핀",
  "address": "서울특별시 강남구 논현동  ",
  "lat": 202338.9443,
  "lng": 445083.091
 },
 {
  "id": 886,
  "name": "내야내야 똥강아지",
  "address": "서울특별시 강서구 화곡동  ",
  "lat": 186862.0693,
  "lng": 447625.9222
 },
 {
  "id": 887,
  "name": "리브동물의료센터",
  "phone": "055-781-2028",
  "address": "경상남도 양산시 덕계동  호",
  "lat": 395572,
  "lng": 210403.0688
 },
 {
  "id": 888,
  "name": "보라눈나",
  "address": "울산광역시 동구 동부동  한라오로라타워 상가동 ",
  "lat": 420487.0783,
  "lng": 229930.8081
 },
 {
  "id": 889,
  "name": "단아하개",
  "address": "인천광역시 서구 불로동  퀸스타운동성아파트 상가 호",
  "lat": 172371.9616,
  "lng": 456999.7666
 },
 {
  "id": 890,
  "name": "나나그룸",
  "address": "인천광역시 서구 청라동  현대썬앤빌더테라스상가 동 호",
  "lat": 168769.9909,
  "lng": 447993.7669
 },
 {
  "id": 891,
  "name": "귀여워 강아지",
  "address": "인천광역시 연수구 송도동  송도 더샵 퍼스트월드 G동 호",
  "lat": 168780.0999,
  "lng": 432168.2872
 },
 {
  "id": 892,
  "name": "오도독뽀도독",
  "address": "부산광역시 연제구 연산동  ",
  "lat": 389660.461,
  "lng": 188502.9701
 },
 {
  "id": 893,
  "name": "탐나개",
  "address": "경상남도 거제시 고현동  ",
  "lat": 348873.4013,
  "lng": 156470.0137
 },
 {
  "id": 894,
  "name": "강생이네",
  "address": "경상남도 밀양시 삼문동  e편한세상밀양삼문 상가동 호",
  "lat": 359013.9243,
  "lng": 221390.5403
 },
 {
  "id": 895,
  "name": "예쁘개펫미용",
  "address": "전라남도 완도군 완도읍 가용리  ",
  "lat": 176252.496,
  "lng": 91634.67384
 },
 {
  "id": 896,
  "name": "미용하러오개",
  "address": "전라북도 완주군 삼례읍 삼례리  ",
  "lat": 206785.5727,
  "lng": 268459.6002
 },
 {
  "id": 897,
  "name": "개린이집",
  "address": "인천광역시 남동구 만수동  층 ",
  "lat": 176077.5378,
  "lng": 438647.2275
 },
 {
  "id": 898,
  "name": "찌동찌동",
  "address": "대구광역시 달성군 화원읍 천내리  층 ",
  "lat": 335917.5205,
  "lng": 257240.8214
 },
 {
  "id": 899,
  "name": "남산연합동물병원",
  "phone": "421-7582",
  "address": "대구광역시 중구 남산동  로하스남산 호",
  "lat": 343206.4289,
  "lng": 263018.9638
 },
 {
  "id": 900,
  "name": "무지개파크",
  "address": "전라북도 군산시 옥산면 쌍봉리  ",
  "lat": 175341.5434,
  "lng": 272735.2987
 },
 {
  "id": 901,
  "name": "애견미용샵 조이",
  "phone": "063-905-7574",
  "address": "전라북도 전주시 덕진구 우아동가  ",
  "lat": 214918.394,
  "lng": 259809.7642
 },
 {
  "id": 902,
  "name": "누구개",
  "phone": "063-901-0330",
  "address": "전라북도 전주시 완산구 서신동  ",
  "lat": 210369.682,
  "lng": 258529.5
 },
 {
  "id": 903,
  "name": "미유펫 강아지애견미용",
  "phone": "031-986-1848",
  "address": "경기도 김포시 구래동  ",
  "lat": 166650.151,
  "lng": 460201.2881
 },
 {
  "id": 904,
  "name": "펫라운지(PET LOUNGE)",
  "address": "경기도 군포시 당정동  대우프라자  ",
  "lat": 195519.0996,
  "lng": 426860.0943
 },
 {
  "id": 905,
  "name": "개in샵(개in#)",
  "address": "경기도 평택시 비전동  ",
  "lat": 208937.7774,
  "lng": 389271.8087
 },
 {
  "id": 906,
  "name": "동네강아지",
  "address": "경기도 양주시 광적면 가납리  ",
  "lat": 198371.5465,
  "lng": 480235.4306
 },
 {
  "id": 907,
  "name": "버블펫쌀롱",
  "address": "경상남도 김해시 관동동  ",
  "lat": 365333.9936,
  "lng": 187956.401
 },
 {
  "id": 908,
  "name": "댕댕이 보호구역",
  "address": "경상남도 진주시 평거동  ",
  "lat": 295066.143,
  "lng": 185683.1496
 },
 {
  "id": 909,
  "name": "개편한 개살롱",
  "address": "경상남도 진주시 하대동  ",
  "lat": 302420.8794,
  "lng": 188354.109
 },
 {
  "id": 910,
  "name": "몽실몽실",
  "address": "전라남도 순천시 해룡면 남가리  ",
  "lat": 249542.2758,
  "lng": 158353.0451
 },
 {
  "id": 911,
  "name": "와르아르",
  "address": "경기도 하남시 망월동  미사강변 호반 써밋 동 호",
  "lat": 217252.7932,
  "lng": 451427.875
 },
 {
  "id": 912,
  "name": "펫 하우스",
  "address": "경기도 시흥시 월곶동  마린월드 상가 ",
  "lat": 177022.4682,
  "lng": 431803.3382
 },
 {
  "id": 913,
  "name": "멍클래스",
  "address": "경기도 성남시 수정구 창곡동  지층 ",
  "lat": 213148.2954,
  "lng": 440843.9077
 },
 {
  "id": 914,
  "name": "오늘도예쁘개",
  "address": "울산광역시 중구 우정동  ",
  "lat": 409340.615,
  "lng": 230805.2824
 },
 {
  "id": 915,
  "name": "콩찌네 미용실",
  "address": "대구광역시 북구 구암동  ",
  "lat": 340317.6501,
  "lng": 270824.7935
 },
 {
  "id": 916,
  "name": "부티뽀샤",
  "address": "대구광역시 북구 동천동  층 ",
  "lat": 340632.1667,
  "lng": 271742.9165
 },
 {
  "id": 917,
  "name": "댕글",
  "address": "부산광역시 남구 대연동  ",
  "lat": 389590.3014,
  "lng": 184161.6803
 },
 {
  "id": 918,
  "name": "비비앤독",
  "address": "서울특별시 광진구 구의동  송원빌딩 ",
  "lat": 207815.9538,
  "lng": 449152.1652
 },
 {
  "id": 919,
  "name": "오자매 애견살롱",
  "address": "충청북도 청주시 서원구 성화동  ",
  "lat": 240461.0341,
  "lng": 346108.6555
 },
 {
  "id": 920,
  "name": "까끄개 애견미용",
  "address": "충청남도 당진시 시곡동  현대그린아파트 ",
  "lat": 171483.6112,
  "lng": 377813.5212
 },
 {
  "id": 921,
  "name": "하쉬 앤 실키 Harsh ＆silky",
  "address": "충청남도 천안시 서북구 성성동  ",
  "lat": 211412.6518,
  "lng": 370929.8008
 },
 {
  "id": 922,
  "name": "몽몽하개",
  "address": "경기도 수원시 권선구 탑동  삼성골든빌 ",
  "lat": 197633.7646,
  "lng": 419211.771
 },
 {
  "id": 923,
  "name": "하늘이네 애견 미용",
  "address": "인천광역시 서구 석남동  ",
  "lat": 171027.5757,
  "lng": 445462.2256
 },
 {
  "id": 924,
  "name": "젠틀그루밍",
  "address": "대구광역시 달서구 대곡동  ",
  "lat": 338261.9194,
  "lng": 256969.1244
 },
 {
  "id": 925,
  "name": "그루밍 멈머",
  "address": "서울특별시 송파구 잠실동  잠실파인애플상가 ",
  "lat": 207373.5002,
  "lng": 445545.656
 },
 {
  "id": 926,
  "name": "빵댕이넷",
  "address": "서울특별시 은평구 대조동  ",
  "lat": 192985.3453,
  "lng": 456927.5079
 },
 {
  "id": 927,
  "name": "뽀송하개 애견미용",
  "address": "서울특별시 강북구 미아동  ",
  "lat": 201589.4587,
  "lng": 458020.5164
 },
 {
  "id": 928,
  "name": "마이티그루밍",
  "address": "서울특별시 강북구 수유동  에피소드 수유  ",
  "lat": 202007.1392,
  "lng": 459396.5536
 },
 {
  "id": 929,
  "name": "아지양이 펫샵",
  "phone": "043-235-5004",
  "address": "충청북도 청주시 흥덕구 복대동  준경빌라 호",
  "lat": 238042.1891,
  "lng": 348398.7225
 },
 {
  "id": 930,
  "name": "숲속 아지양이",
  "phone": "043-268-0848",
  "address": "충청북도 청주시 서원구 산남동  호",
  "lat": 242443.6933,
  "lng": 345588.7883
 },
 {
  "id": 931,
  "name": "펫살롱",
  "address": "경기도 화성시 영천동  동탄 LH단지 ",
  "lat": 209299.7581,
  "lng": 412231.7459
 },
 {
  "id": 932,
  "name": "코코펫 동탄강아지분양",
  "address": "경기도 화성시 영천동  ",
  "lat": 210162.5106,
  "lng": 411527.4142
 },
 {
  "id": 933,
  "name": "어나더베이비 동탄 라크몽점",
  "phone": "1533-4259",
  "address": "경기도 화성시 송동  ",
  "lat": 209267.8319,
  "lng": 407233.5254
 },
 {
  "id": 934,
  "name": "도로롱펫",
  "address": "충청남도 보령시 명천동  ",
  "lat": 164662.1609,
  "lng": 315111.4137
 },
 {
  "id": 935,
  "name": "덕소멍묭",
  "address": "경기도 남양주시 와부읍 덕소리  ",
  "lat": 218745.8305,
  "lng": 453844.7853
 },
 {
  "id": 936,
  "name": "보리정원",
  "address": "인천광역시 동구 만석동  계성빌라 ",
  "lat": 166560.5806,
  "lng": 442707.9708
 },
 {
  "id": 937,
  "name": "해피펫애견",
  "phone": "053-957-0975",
  "address": "대구광역시 북구 동변동  층 ",
  "lat": 344689.4564,
  "lng": 270078.6175
 },
 {
  "id": 938,
  "name": "알라꿀 펫살롱",
  "address": "서울특별시 성동구 송정동  ",
  "lat": 205799.0953,
  "lng": 449713.5876
 },
 {
  "id": 939,
  "name": "림&Doggy Salon",
  "address": "전라북도 군산시 미장동  호",
  "lat": 175464.8233,
  "lng": 273687.4616
 },
 {
  "id": 940,
  "name": "까르네 펫살롱",
  "address": "경기도 용인시 기흥구 보정동  로얄캠퍼빌 ",
  "lat": 210060.35,
  "lng": 424170.22
 },
 {
  "id": 941,
  "name": "견공간샵",
  "address": "경기도 하남시 망월동  디럭스프라자 호",
  "lat": 216295.4886,
  "lng": 451861.1682
 },
 {
  "id": 942,
  "name": "브이도그",
  "address": "대전광역시 서구 도안동  ",
  "lat": 231693.4808,
  "lng": 312200.5859
 },
 {
  "id": 943,
  "name": "러블리독스",
  "address": "인천광역시 서구 신현동  ",
  "lat": 170774.1364,
  "lng": 446194.9576
 },
 {
  "id": 944,
  "name": "포포펫살롱",
  "address": "세종특별자치시 새롬동  새뜸마을단지 근린생활시설 상가동 B호",
  "lat": 222838.7993,
  "lng": 331910.9217
 },
 {
  "id": 945,
  "name": "찰스앤에디",
  "address": "경기도 화성시 새솔동  ",
  "lat": 183835.5319,
  "lng": 420134.0825
 },
 {
  "id": 946,
  "name": "그루밍154",
  "address": "경상남도 거제시 장평동  덕산 아내 차 ",
  "lat": 346917.567,
  "lng": 155528.6546
 },
 {
  "id": 947,
  "name": "유니멍 강아지미용실",
  "address": "경상남도 김해시 대청동  다인메디컬센타 ",
  "lat": 363765.1204,
  "lng": 189827.6846
 },
 {
  "id": 948,
  "name": "올라독",
  "address": "강원도 원주시 반곡동  ",
  "lat": 285529.0527,
  "lng": 426697.0189
 },
 {
  "id": 949,
  "name": "귀염댕이",
  "address": "강원도 원주시 무실동  ",
  "lat": 282418.4711,
  "lng": 425343.0659
 },
 {
  "id": 950,
  "name": "글리밍도그(Gleaming Dog)",
  "address": "경기도 김포시 운양동  김포운양헤리움타운 ",
  "lat": 172121.4662,
  "lng": 461367.1932
 },
 {
  "id": 951,
  "name": "써니퍼피",
  "address": "울산광역시 울주군 청량읍 상남리  ",
  "lat": 409180.9001,
  "lng": 224122.3703
 },
 {
  "id": 952,
  "name": "꾸며줄개",
  "address": "대전광역시 유성구 원신흥동  ",
  "lat": 230735.0985,
  "lng": 315428.5641
 },
 {
  "id": 953,
  "name": "BOB 애견용품 아울렛",
  "phone": "062-955-2661",
  "address": "광주광역시 광산구 신창동  ",
  "lat": 185206.8836,
  "lng": 188464.1845
 },
 {
  "id": 954,
  "name": "포우포우",
  "address": "부산광역시 북구 구포동  ",
  "lat": 382722.2295,
  "lng": 190420.638
 },
 {
  "id": 955,
  "name": "뽀비앤브라운",
  "address": "서울특별시 구로구 항동  항동중흥에스클래스베르데카운티 상가동 호",
  "lat": 184086.0127,
  "lng": 442101.1768
 },
 {
  "id": 956,
  "name": "정말귀엽개",
  "phone": "02-2246-0010",
  "address": "서울특별시 동대문구 장안동  ",
  "lat": 206003.4381,
  "lng": 451999.2575
 },
 {
  "id": 957,
  "name": "숲속동물병원",
  "phone": "031-355-7525",
  "address": "경기도 화성시 새솔동  ",
  "lat": 183748.5156,
  "lng": 420379.4894
 },
 {
  "id": 958,
  "name": "까까독",
  "address": "인천광역시 부평구 부평동  호",
  "lat": 175783.3025,
  "lng": 444722.3836
 },
 {
  "id": 959,
  "name": "아소비 퍼피스 서창점",
  "address": "인천광역시 남동구 서창동  층 호",
  "lat": 177588.5241,
  "lng": 436035.1101
 },
 {
  "id": 960,
  "name": "상아동물병원",
  "phone": "2644-0069",
  "address": "서울특별시 양천구 신정동  층 ",
  "lat": 187943.595,
  "lng": 446944.9
 },
 {
  "id": 961,
  "name": "우리집막내",
  "address": "경상남도 창원시 성산구 성주동  프리빌리지아파트 ",
  "lat": 355703.536,
  "lng": 190632.1453
 },
 {
  "id": 962,
  "name": "희동펫살롱",
  "address": "경상북도 포항시 북구 양덕동  ",
  "lat": 415974.8735,
  "lng": 289388.857
 },
 {
  "id": 963,
  "name": "봉글봉글",
  "address": "경상북도 포항시 북구 흥해읍 학천리  ",
  "lat": 410214.8494,
  "lng": 289072.4275
 },
 {
  "id": 964,
  "name": "애정그루밍",
  "address": "경기도 군포시 산본동  ",
  "lat": 194394.9886,
  "lng": 430022.0055
 },
 {
  "id": 965,
  "name": "블링 블링",
  "phone": "031-551-0251",
  "address": "경기도 구리시 인창동  현대아파트 상가동 호",
  "lat": 212039.1661,
  "lng": 456324.941
 },
 {
  "id": 966,
  "name": "키몬리 그루밍",
  "address": "경기도 부천시 중동  ",
  "lat": 179427.4078,
  "lng": 444580.0769
 },
 {
  "id": 967,
  "name": "몽그레",
  "address": "대전광역시 유성구 계산동  호",
  "lat": 227005.0106,
  "lng": 315677.633
 },
 {
  "id": 968,
  "name": "꼬마애견",
  "address": "광주광역시 북구 오치동  호",
  "lat": 191295.1726,
  "lng": 187768.3315
 },
 {
  "id": 969,
  "name": "마이유어펫살롱",
  "address": "부산광역시 강서구 명지동  ",
  "lat": 375617.244,
  "lng": 180157.9744
 },
 {
  "id": 970,
  "name": "피어나개",
  "address": "서울특별시 은평구 불광동  유니파크 호",
  "lat": 193973.6736,
  "lng": 457400.5857
 },
 {
  "id": 971,
  "name": "다미살롱",
  "address": "충청북도 청주시 청원구 주성동  호",
  "lat": 244522.2335,
  "lng": 352348.1578
 },
 {
  "id": 972,
  "name": "댕포유샬롱",
  "address": "경상남도 김해시 내동  ",
  "lat": 369893.837,
  "lng": 194471.2996
 },
 {
  "id": 973,
  "name": "몽드리",
  "phone": "031-582-7979",
  "address": "경기도 가평군 가평읍 읍내리  ",
  "lat": 244719.4708,
  "lng": 481454.4893
 },
 {
  "id": 974,
  "name": "도그뷰티",
  "address": "경기도 평택시 용이동  ",
  "lat": 212078.4869,
  "lng": 388512.8313
 },
 {
  "id": 975,
  "name": "샤인펫 (Shine pet)",
  "address": "경기도 수원시 장안구 송죽동  현광프라자 ",
  "lat": 200326.5571,
  "lng": 422845.02
 },
 {
  "id": 976,
  "name": "도담도담 동물병원",
  "phone": "062-973-7579",
  "address": "광주광역시 광산구 쌍암동  ",
  "lat": 185576.4974,
  "lng": 191045.7396
 },
 {
  "id": 977,
  "name": "루나독(Luna dog)",
  "address": "인천광역시 미추홀구 용현동  인천 SK Sky VIEW ",
  "lat": 168560.2321,
  "lng": 438658.5976
 },
 {
  "id": 978,
  "name": "개이뿌개",
  "address": "인천광역시 미추홀구 문학동  ",
  "lat": 171572.8086,
  "lng": 437301.5714
 },
 {
  "id": 979,
  "name": "나꼼유치원",
  "phone": "051-895-0910",
  "address": "부산광역시 부산진구 개금동  ",
  "lat": 384527.589,
  "lng": 185689.6138
 },
 {
  "id": 980,
  "name": "꽃길걷개",
  "address": "서울특별시 서초구 서초동  와라빌딩 ",
  "lat": 200984.4119,
  "lng": 442413.0823
 },
 {
  "id": 981,
  "name": "라떼멍살롱",
  "address": "서울특별시 구로구 고척동  ",
  "lat": 188046.5988,
  "lng": 444370.7837
 },
 {
  "id": 982,
  "name": "캣케밍",
  "address": "서울특별시 마포구 서교동  대유빌딩 ",
  "lat": 193071.6502,
  "lng": 450114.5453
 },
 {
  "id": 983,
  "name": "르샤블랑",
  "address": "충청남도 아산시 배방읍 북수리  ",
  "lat": 206467.318,
  "lng": 363020.1414
 },
 {
  "id": 984,
  "name": "ALOHA",
  "phone": "02-549-9515",
  "address": "서울특별시 강남구 논현동  ",
  "lat": 203306.246,
  "lng": 445434.2952
 },
 {
  "id": 985,
  "name": "beddie(베디)",
  "address": "제주특별자치도 제주시 연동  ",
  "lat": 152675.66,
  "lng": -1893.64
 },
 {
  "id": 986,
  "name": "메종드 로이",
  "address": "경기도 시흥시 산현동  레이크문 ",
  "lat": 186046.3221,
  "lng": 430553.8406
 },
 {
  "id": 987,
  "name": "퍼피루스",
  "address": "서울특별시 송파구 장지동  아이온스퀘어 ",
  "lat": 212524.3067,
  "lng": 442109.5641
 },
 {
  "id": 988,
  "name": "뷰티반려문화",
  "phone": "02-2088-3375",
  "address": "서울특별시 강남구 논현동  ",
  "lat": 202874.5335,
  "lng": 445968.25
 },
 {
  "id": 989,
  "name": "베베펫살롱",
  "address": "전라남도 목포시 옥암동  ",
  "lat": 149436.5002,
  "lng": 145872.3741
 },
 {
  "id": 990,
  "name": "그루몽펫살롱(groomong)",
  "address": "광주광역시 광산구 월계동  첨단차 라인아파트 상가동 호",
  "lat": 184558.0801,
  "lng": 190739.3993
 },
 {
  "id": 991,
  "name": "사랑옵다",
  "address": "서울특별시 중랑구 망우동  ",
  "lat": 209040.9282,
  "lng": 455481.8008
 },
 {
  "id": 992,
  "name": "하비펫샵",
  "address": "경상북도 포항시 북구 장성동  ",
  "lat": 414474.5295,
  "lng": 289837.2208
 },
 {
  "id": 993,
  "name": "안아줄개",
  "phone": "063-909-1015",
  "address": "전라북도 전주시 완산구 효자동가  ",
  "lat": 209625.4354,
  "lng": 256470.1481
 },
 {
  "id": 994,
  "name": "강아지 미용실",
  "address": "경기도 군포시 부곡동  ",
  "lat": 194817.4791,
  "lng": 424419.2354
 },
 {
  "id": 995,
  "name": "뽀독",
  "address": "경기도 시흥시 정왕동  ",
  "lat": 178136.8768,
  "lng": 427148.9995
 },
 {
  "id": 996,
  "name": "클레어 펫살롱",
  "address": "경기도 남양주시 별내동  ",
  "lat": 210396.1746,
  "lng": 462826.5234
 },
 {
  "id": 997,
  "name": "Blesspets (블리스펫츠)",
  "address": "대전광역시 유성구 신성동  층호",
  "lat": 231407.105,
  "lng": 320787.9338
 },
 {
  "id": 998,
  "name": "유독이쁨",
  "address": "부산광역시 부산진구 양정동  ",
  "lat": 388122.6251,
  "lng": 187987.3272
 },
 {
  "id": 999,
  "name": "멍발소",
  "address": "전라북도 전주시 완산구 중화산동가  ",
  "lat": 210813.9438,
  "lng": 257994.2587
 },
 {
  "id": 1000,
  "name": "레오그루밍",
  "address": "경기도 안산시 상록구 사동  호",
  "lat": 186446.4683,
  "lng": 421653.2446
 },
 {
  "id": 1001,
  "name": "케이디펫",
  "address": "경기도 부천시 중동  신풍프라자 ",
  "lat": 179668.2821,
  "lng": 444418.1796
 },
 {
  "id": 1002,
  "name": "네임드 살롱",
  "address": "경기도 부천시 도당동  미성하이츠아파트 ",
  "lat": 181379.7404,
  "lng": 446440.2637
 },
 {
  "id": 1003,
  "name": "해피하우스",
  "phone": "032-503-5628",
  "address": "인천광역시 부평구 십정동  층 ",
  "lat": 174137.2851,
  "lng": 442592.5504
 },
 {
  "id": 1004,
  "name": "디클로젯",
  "address": "부산광역시 동래구 명장동  ",
  "lat": 391764.9155,
  "lng": 191429.9101
 },
 {
  "id": 1005,
  "name": "퍼피그랑",
  "address": "부산광역시 부산진구 양정동  ",
  "lat": 388560.4543,
  "lng": 187365.1238
 },
 {
  "id": 1006,
  "name": "후니독",
  "address": "경기도 화성시 봉담읍 상리  호",
  "lat": 195168.2744,
  "lng": 413178.6727
 },
 {
  "id": 1007,
  "name": "Happy 애견샵",
  "address": "경상남도 김해시 진영읍 진영리  ",
  "lat": 357772.4666,
  "lng": 202809.0052
 },
 {
  "id": 1008,
  "name": "개폼",
  "address": "경상북도 문경시 모전동  ",
  "lat": 306511.0749,
  "lng": 343179.349
 },
 {
  "id": 1009,
  "name": "도그미뇽",
  "address": "경기도 오산시 내삼미동  층 ",
  "lat": 205487.5845,
  "lng": 408750.0133
 },
 {
  "id": 1010,
  "name": "하나애견",
  "address": "경기도 안산시 상록구 건건동  ",
  "lat": 191333.638,
  "lng": 422730.4702
 },
 {
  "id": 1011,
  "name": "같은마음",
  "address": "인천광역시 중구 운서동  프라임시티 ",
  "lat": 155414.7023,
  "lng": 443336.0048
 },
 {
  "id": 1012,
  "name": "도로시펫 미용실",
  "address": "부산광역시 사상구 주례동  ",
  "lat": 383035.6525,
  "lng": 185345.8957
 },
 {
  "id": 1013,
  "name": "어스멍",
  "address": "부산광역시 강서구 명지동  퍼스트삼융 ",
  "lat": 374028.3362,
  "lng": 178804.689
 },
 {
  "id": 1014,
  "name": "반자주 장산점",
  "address": "부산광역시 해운대구 좌동  해운대케이씨씨스위첸 ",
  "lat": 398319.7471,
  "lng": 188121.9593
 },
 {
  "id": 1015,
  "name": "정 메디컬 동물병원",
  "phone": "055-264-5959",
  "address": "경상남도 창원시 성산구 상남동  KT빌딩 ",
  "lat": 353250.1716,
  "lng": 192958.9448
 },
 {
  "id": 1016,
  "name": "원이네 살롱",
  "address": "경상남도 창원시 마산합포구 월남동가  ",
  "lat": 341953.4067,
  "lng": 188163.6272
 },
 {
  "id": 1017,
  "name": "그린카펫",
  "address": "경상남도 양산시 동면 금산리  호",
  "lat": 383718.4024,
  "lng": 203397.3307
 },
 {
  "id": 1018,
  "name": "그루몽",
  "address": "경기도 안산시 단원구 고잔동  세종빌딩 호",
  "lat": 184652.7083,
  "lng": 423484.4917
 },
 {
  "id": 1019,
  "name": "잔다냥 성남점",
  "address": "경기도 성남시 수정구 신흥동  송림빌라 호",
  "lat": 212794.6703,
  "lng": 438098.3283
 },
 {
  "id": 1020,
  "name": "벨몽드펫",
  "address": "대전광역시 동구 용전동  ",
  "lat": 238611.3469,
  "lng": 317295.752
 },
 {
  "id": 1021,
  "name": "퍼피쿼터스",
  "address": "광주광역시 남구 월산동  ",
  "lat": 189700.9121,
  "lng": 182842.7886
 },
 {
  "id": 1022,
  "name": "메리몰펫샵",
  "address": "부산광역시 북구 만덕동  ",
  "lat": 385500.4405,
  "lng": 191765.4861
 },
 {
  "id": 1023,
  "name": "뽀송해 냠냠해",
  "address": "경상북도 포항시 북구 흥해읍 성내리  ",
  "lat": 411351.4817,
  "lng": 292730.4346
 },
 {
  "id": 1024,
  "name": "똘이랑쩡아 애견미용",
  "phone": "031-647-0302",
  "address": "경기도 평택시 통복동  ",
  "lat": 206988.5235,
  "lng": 388047.7221
 },
 {
  "id": 1025,
  "name": "오즈펫살롱",
  "address": "경기도 수원시 영통구 이의동  호",
  "lat": 204026.7911,
  "lng": 422569.2433
 },
 {
  "id": 1026,
  "name": "아프리카 동물의료센터",
  "phone": "032-508-7582",
  "address": "인천광역시 부평구 삼산동  덕성빌딩 층 ",
  "lat": 176287.3698,
  "lng": 446026.155
 },
 {
  "id": 1027,
  "name": "고양이무마취미용 냥지곤지",
  "address": "부산광역시 동래구 온천동  ",
  "lat": 389419.4842,
  "lng": 193000.1691
 },
 {
  "id": 1028,
  "name": "까까댕이",
  "address": "충청북도 청주시 흥덕구 복대동  ",
  "lat": 238985.9544,
  "lng": 348220.2474
 },
 {
  "id": 1029,
  "name": "살롱아르르",
  "address": "경기도 화성시 능동  ",
  "lat": 204595.9985,
  "lng": 410914.7711
 },
 {
  "id": 1030,
  "name": "데일리독",
  "address": "경기도 화성시 송동  ",
  "lat": 208449.96,
  "lng": 407158.12
 },
 {
  "id": 1031,
  "name": "개바라기",
  "address": "경상북도 상주시 서성동  ",
  "lat": 303917.7938,
  "lng": 324597.2454
 },
 {
  "id": 1032,
  "name": "야옹아멍멍해봐 정읍점",
  "phone": "537-8883",
  "address": "전라북도 정읍시 수성동  ",
  "lat": 186700.3365,
  "lng": 230850.8322
 },
 {
  "id": 1033,
  "name": "펜디멍",
  "address": "광주광역시 북구 신용동  (주)어울림 ",
  "lat": 187440.95,
  "lng": 189712.4
 },
 {
  "id": 1034,
  "name": "우아한 강아지",
  "address": "광주광역시 서구 풍암동  호",
  "lat": 189412.1617,
  "lng": 180411.2211
 },
 {
  "id": 1035,
  "name": "뽀미 애견 미용샵",
  "address": "부산광역시 수영구 광안동  ",
  "lat": 393103.3158,
  "lng": 186471.2713
 },
 {
  "id": 1036,
  "name": "어썸독",
  "address": "경기도 파주시 목동동  ",
  "lat": 176579.1075,
  "lng": 469706.0691
 },
 {
  "id": 1037,
  "name": "뻬띠앙",
  "address": "경기도 평택시 세교동  세교타워 ",
  "lat": 207966.0287,
  "lng": 389584.1303
 },
 {
  "id": 1038,
  "name": "Happy Paws(해피포우)",
  "phone": "032-225-5005",
  "address": "인천광역시 중구 중산동  ",
  "lat": 161205.3689,
  "lng": 442740.9383
 },
 {
  "id": 1039,
  "name": "플러스비비",
  "address": "서울특별시 강동구 고덕동  고덕센트럴푸르지오 호",
  "lat": 214956.1313,
  "lng": 450617.9236
 },
 {
  "id": 1040,
  "name": "하이조이",
  "address": "서울특별시 동대문구 이문동  ",
  "lat": 205446.0649,
  "lng": 455837.2033
 },
 {
  "id": 1041,
  "name": "항상,예쁘개",
  "address": "경기도 화성시 오산동  동탄역 반도유보라 아이비파크 . ",
  "lat": 207987.2685,
  "lng": 411169.46
 },
 {
  "id": 1042,
  "name": "견생미생",
  "address": "경기도 화성시 병점동  안화동마을주공단지 ",
  "lat": 204356.4206,
  "lng": 412282.2867
 },
 {
  "id": 1043,
  "name": "아로하스토리",
  "phone": "031-526-0596",
  "address": "경기도 용인시 처인구 이동읍 서리  ",
  "lat": 215105.1203,
  "lng": 412318.0284
 },
 {
  "id": 1044,
  "name": "헤이, 버디(Hey, Buddy) 본점",
  "address": "경기도 고양시 덕양구 동산동  층 , 호 ",
  "lat": 189932.1576,
  "lng": 460175.8741
 },
 {
  "id": 1045,
  "name": "꼬맹이네 멍발소",
  "address": "경기도 부천시 원종동  계룡팰리스 ",
  "lat": 182495.0184,
  "lng": 446800.7948
 },
 {
  "id": 1046,
  "name": "A dog's (어독스)",
  "address": "인천광역시 부평구 부평동  부평타워큐아파트 호",
  "lat": 175364.3351,
  "lng": 444431.1158
 },
 {
  "id": 1047,
  "name": "ME & DOG",
  "address": "경기도 남양주시 다산동  다산 한양수자인리버파크 (근린생활시설) ",
  "lat": 212885.8873,
  "lng": 457551.7212
 },
 {
  "id": 1048,
  "name": "아지트 포 독",
  "address": "제주특별자치도 서귀포시 동홍동  ",
  "lat": 158996.3817,
  "lng": -25911.53883
 },
 {
  "id": 1049,
  "name": "스타멍스",
  "address": "세종특별자치시 다정동  페스티발 호",
  "lat": 222196.877,
  "lng": 332728.2527
 },
 {
  "id": 1050,
  "name": "해피오브트리밍",
  "address": "경기도 양주시 덕계동  ",
  "lat": 204500.4875,
  "lng": 479521.655
 },
 {
  "id": 1051,
  "name": "몽몽살롱 반려견 미용실",
  "address": "경상남도 진주시 호탄동  ",
  "lat": 301609.1024,
  "lng": 185441.9519
 },
 {
  "id": 1052,
  "name": "멍멍뷰티크",
  "address": "전라남도 화순군 화순읍 광덕리  ",
  "lat": 199134.8032,
  "lng": 172988.468
 },
 {
  "id": 1053,
  "name": "강아지와 산책",
  "address": "경기도 시흥시 정왕동  영남아파트 상가동 ",
  "lat": 176211.4673,
  "lng": 428392.4712
 },
 {
  "id": 1054,
  "name": "프라독",
  "address": "인천광역시 중구 중앙동가  중앙프라자 ",
  "lat": 166539.097,
  "lng": 441144.233
 },
 {
  "id": 1055,
  "name": "도그온리",
  "address": "대구광역시 남구 봉덕동  강변 코오롱 하늘채 ",
  "lat": 344957.2616,
  "lng": 261591.2765
 },
 {
  "id": 1056,
  "name": "카페또또",
  "address": "경상남도 창원시 성산구 상남동  진성빌딩 ",
  "lat": 353272.8021,
  "lng": 192831.8269
 },
 {
  "id": 1057,
  "name": "삼콩댕댕이발소",
  "address": "경상남도 창원시 마산합포구 성호동  ",
  "lat": 342957.2052,
  "lng": 191255.1058
 },
 {
  "id": 1058,
  "name": "바멍샵",
  "address": "경기도 양주시 옥정동  ",
  "lat": 207626.2752,
  "lng": 481140.3551
 },
 {
  "id": 1059,
  "name": "안녕,사랑",
  "address": "충청북도 충주시 칠금동  금강빌딩 ",
  "lat": 281631.6654,
  "lng": 387174.4905
 },
 {
  "id": 1060,
  "name": "Pet salon",
  "address": "경기도 안산시 단원구 선부동  주공아파트 상가동 호",
  "lat": 182755.6934,
  "lng": 425793.6185
 },
 {
  "id": 1061,
  "name": "끌레르몽",
  "phone": "062-674-5977",
  "address": "광주광역시 남구 주월동  ",
  "lat": 190548.6627,
  "lng": 181096.8447
 },
 {
  "id": 1062,
  "name": "마스코타 펫",
  "address": "대구광역시 북구 복현동  복현차서한이다음 상가동 호",
  "lat": 346121.5571,
  "lng": 267981.2898
 },
 {
  "id": 1063,
  "name": "oh my dog(오마이독)",
  "address": "서울특별시 관악구 봉천동  ",
  "lat": 196261.7518,
  "lng": 442706.5171
 },
 {
  "id": 1064,
  "name": "제로네 펫쌀롱",
  "address": "충청북도 청주시 서원구 산남동  하모니마트 호",
  "lat": 241557.9822,
  "lng": 345671.3227
 },
 {
  "id": 1065,
  "name": "프라독",
  "address": "경상북도 성주군 성주읍 백전리  ",
  "lat": 315371.6801,
  "lng": 269664.5073
 },
 {
  "id": 1066,
  "name": "인생개획",
  "address": "경상북도 문경시 모전동  ",
  "lat": 305834.0472,
  "lng": 343124.9652
 },
 {
  "id": 1067,
  "name": "향내음 댕댕이 멀티샵",
  "address": "전라남도 영광군 영광읍 남천리  ",
  "lat": 154832.7742,
  "lng": 197533.6122
 },
 {
  "id": 1068,
  "name": "멍군",
  "address": "강원도 춘천시 석사동  ",
  "lat": 265213.1902,
  "lng": 484207.9569
 },
 {
  "id": 1069,
  "name": "프롬몽쥬",
  "address": "경기도 고양시 일산동구 장항동  일산프라자 호",
  "lat": 179613.8742,
  "lng": 462228.3829
 },
 {
  "id": 1070,
  "name": "엔조이어블",
  "address": "울산광역시 중구 장현동  ",
  "lat": 412245.3114,
  "lng": 234475.2922
 },
 {
  "id": 1071,
  "name": "상아동물병원",
  "phone": "042-627-7744",
  "address": "대전광역시 대덕구 중리동  ",
  "lat": 238504.1885,
  "lng": 318488.1073
 },
 {
  "id": 1072,
  "name": "Grooming Shinsa 비숑다움(월산점)",
  "address": "광주광역시 남구 월산동  펫타워 ",
  "lat": 190260.2377,
  "lng": 182371.6918
 },
 {
  "id": 1073,
  "name": "몽그리몽",
  "address": "경상남도 양산시 물금읍 범어리  양산 유림노르웨이숲 ",
  "lat": 382883.3411,
  "lng": 204962.556
 },
 {
  "id": 1074,
  "name": "멍이살롱",
  "address": "경상북도 경산시 진량읍 북리  ",
  "lat": 364808.4622,
  "lng": 266334.685
 },
 {
  "id": 1075,
  "name": "코이펫",
  "phone": "070-7622-0210",
  "address": "경기도 김포시 통진읍 서암리  ",
  "lat": 164427.5993,
  "lng": 465900.6248
 },
 {
  "id": 1076,
  "name": "모두의 집사",
  "address": "경기도 김포시 운양동  ",
  "lat": 172128.3333,
  "lng": 461262.9413
 },
 {
  "id": 1077,
  "name": "아띠펫살롱",
  "address": "경기도 성남시 분당구 대장동  판교 풍경채 어바니티 단지 ",
  "lat": 206154.8493,
  "lng": 429102.2458
 },
 {
  "id": 1078,
  "name": "구영 고양이 무마취 미용",
  "address": "울산광역시 울주군 범서읍 구영리  ",
  "lat": 403951.8465,
  "lng": 231914.2749
 },
 {
  "id": 1079,
  "name": "휴도기 그루밍",
  "address": "울산광역시 남구 신정동  ",
  "lat": 409025.6364,
  "lng": 228748.3623
 },
 {
  "id": 1080,
  "name": "올리스 아시아드점",
  "address": "인천광역시 서구 연희동  인천아시아드주경기장 ",
  "lat": 170458.811,
  "lng": 449382.2137
 },
 {
  "id": 1081,
  "name": "클림트(순지애견미용)",
  "phone": "053-631-5455",
  "address": "대구광역시 달서구 대곡동  대곡한라하우젠트 ",
  "lat": 336762.9308,
  "lng": 257585.6083
 },
 {
  "id": 1082,
  "name": "우다다애견",
  "address": "부산광역시 기장군 기장읍 동부리  동보하이츠빌라 호",
  "lat": 401840.2946,
  "lng": 196637.5392
 },
 {
  "id": 1083,
  "name": "마이리틀프렌드 강남점",
  "phone": "02-3443-0430",
  "address": "서울특별시 강남구 논현동  ",
  "lat": 202041.3957,
  "lng": 445451.4282
 },
 {
  "id": 1084,
  "name": "꼬씨와 펫살롱",
  "address": "경기도 용인시 기흥구 보정동  벤포스타 ",
  "lat": 209711.5839,
  "lng": 424310.2919
 },
 {
  "id": 1085,
  "name": "아트멍 이문안점",
  "address": "경기도 구리시 교문동  ",
  "lat": 211668.6799,
  "lng": 454705.6117
 },
 {
  "id": 1086,
  "name": "몽실캣",
  "address": "경기도 안양시 동안구 관양동  층 ",
  "lat": 196274.1697,
  "lng": 433423.2296
 },
 {
  "id": 1087,
  "name": "벽지 뜯는 강아지",
  "address": "경기도 의정부시 금오동  금강프라자 호",
  "lat": 206049.724,
  "lng": 472244.2254
 },
 {
  "id": 1089,
  "name": "아스타펫살롱",
  "address": "인천광역시 계양구 효성동  층 호",
  "lat": 174940.0144,
  "lng": 447493.6697
 },
 {
  "id": 1090,
  "name": "I PET (아이펫)",
  "address": "인천광역시 부평구 부평동  호",
  "lat": 175342.393,
  "lng": 444621.4726
 },
 {
  "id": 1091,
  "name": "블랙스완",
  "address": "서울특별시 서초구 서초동  이즈타워 ",
  "lat": 202503.8716,
  "lng": 443326.1296
 },
 {
  "id": 1092,
  "name": "노원 바른동물의료센터",
  "phone": "02-936-5500",
  "address": "서울특별시 노원구 상계동  부흥빌딩 ",
  "lat": 204909.4643,
  "lng": 463186.2717
 },
 {
  "id": 1093,
  "name": "카카몽 애견미용실",
  "address": "경기도 광주시 쌍령동  ",
  "lat": 223879.3577,
  "lng": 433247.0258
 },
 {
  "id": 1094,
  "name": "개꿈꾸는 고양이",
  "address": "충청남도 당진시 읍내동  ",
  "lat": 166842.0709,
  "lng": 377480.1328
 },
 {
  "id": 1095,
  "name": "예쁘개",
  "address": "전라북도 완주군 삼례읍 삼례리  ",
  "lat": 206392.9788,
  "lng": 267767.7642
 },
 {
  "id": 1096,
  "name": "윤그루밍",
  "address": "강원도 양구군 양구읍 상리  ",
  "lat": 286628.1615,
  "lng": 511791.9092
 },
 {
  "id": 1097,
  "name": "베버리 독스",
  "address": "경기도 하남시 망월동  강변 신성프라자 호",
  "lat": 216766.8224,
  "lng": 451045.015
 },
 {
  "id": 1098,
  "name": "쁘띠독",
  "phone": "052-293-3010",
  "address": "울산광역시 중구 서동  ",
  "lat": 412464.9197,
  "lng": 233786.6691
 },
 {
  "id": 1099,
  "name": "큐티하개_함",
  "address": "대구광역시 북구 관음동  ",
  "lat": 339420.9706,
  "lng": 272908.337
 },
 {
  "id": 1100,
  "name": "강아지 미용실",
  "address": "부산광역시 사하구 괴정동  ",
  "lat": 381056.9442,
  "lng": 179370.7045
 },
 {
  "id": 1101,
  "name": "몽시앙",
  "address": "서울특별시 강서구 마곡동  이너매스마곡Ⅱ 호",
  "lat": 184971.5227,
  "lng": 450643.0564
 },
 {
  "id": 1102,
  "name": "사랑해주개",
  "address": "충청북도 청주시 상당구 용정동  ",
  "lat": 245799.7333,
  "lng": 346935.5174
 },
 {
  "id": 1103,
  "name": "앙볼리펫살롱",
  "phone": "031-373-0725",
  "address": "경기도 화성시 영천동  ",
  "lat": 209537.8971,
  "lng": 411850.3454
 },
 {
  "id": 1104,
  "name": "딩동댕",
  "address": "경기도 고양시 덕양구 도내동  호",
  "lat": 188774.6098,
  "lng": 458662.119
 },
 {
  "id": 1105,
  "name": "뽀드독",
  "address": "인천광역시 남동구 서창동  준프라자 호",
  "lat": 177901.3827,
  "lng": 436353.814
 },
 {
  "id": 1106,
  "name": "몽개구름",
  "address": "인천광역시 남동구 간석동  호",
  "lat": 173014.6873,
  "lng": 439332.9815
 },
 {
  "id": 1107,
  "name": "비니펫",
  "address": "부산광역시 금정구 부곡동  ",
  "lat": 390417.6425,
  "lng": 194565.8943
 },
 {
  "id": 1108,
  "name": "몽슈슈펫",
  "address": "서울특별시 성북구 정릉동  정릉힐스테이트차 상가동 호",
  "lat": 200607.7703,
  "lng": 456902.4508
 },
 {
  "id": 1109,
  "name": "오랑개",
  "address": "경기도 화성시 능동  ",
  "lat": 204881.5595,
  "lng": 412692.9808
 },
 {
  "id": 1110,
  "name": "마이펫 시저링",
  "address": "경상북도 구미시 신평동  ",
  "lat": 322845.5056,
  "lng": 292459.5127
 },
 {
  "id": 1111,
  "name": "버블멍",
  "address": "전라남도 장성군 장성읍 영천리  ",
  "lat": 179522.6399,
  "lng": 199152.8671
 },
 {
  "id": 1112,
  "name": "오도그",
  "address": "충청남도 천안시 서북구 불당동  ",
  "lat": 209043.6512,
  "lng": 367603.5172
 },
 {
  "id": 1113,
  "name": "강아지미장원",
  "address": "강원도 횡성군 횡성읍 읍상리  ",
  "lat": 287888.597,
  "lng": 443440.7211
 },
 {
  "id": 1114,
  "name": "똘이 그루밍 샾",
  "address": "경기도 부천시 상동  시그마타워 ",
  "lat": 178298.9789,
  "lng": 444923.6059
 },
 {
  "id": 1115,
  "name": "멍이날개",
  "address": "인천광역시 부평구 삼산동  층 ",
  "lat": 177182.4057,
  "lng": 446384.7437
 },
 {
  "id": 1116,
  "name": "몽프리제",
  "address": "부산광역시 서구 서대신동가  ",
  "lat": 383633.1247,
  "lng": 180758.5483
 },
 {
  "id": 1117,
  "name": "오늘은 꽃단장",
  "address": "서울특별시 광진구 자양동  ",
  "lat": 206708.068,
  "lng": 448342.6409
 },
 {
  "id": 1118,
  "name": "다솜애견미용실",
  "address": "충청북도 진천군 진천읍 교성리  ",
  "lat": 239522.3037,
  "lng": 372476.0933
 },
 {
  "id": 1119,
  "name": "아찌살롱",
  "address": "충청북도 충주시 연수동  ",
  "lat": 283288.3096,
  "lng": 388046.2236
 },
 {
  "id": 1120,
  "name": "축복",
  "address": "경기도 남양주시 다산동  ",
  "lat": 214169.7894,
  "lng": 457046.4879
 },
 {
  "id": 1121,
  "name": "댕댕몽",
  "address": "경기도 남양주시 별내동  ",
  "lat": 209777.4384,
  "lng": 460952.8294
 },
 {
  "id": 1122,
  "name": "어나더베이비 펫시네마 영통점",
  "phone": "1670-5942",
  "address": "경기도 수원시 영통구 영통동  롯데마트 영통점 ",
  "lat": 206280.422,
  "lng": 416752.2657
 },
 {
  "id": 1123,
  "name": "야옹아 멍멍해봐 강아지고양이 청주동남점",
  "phone": "043-284-0049",
  "address": "충청북도 청주시 상당구 방서동  ",
  "lat": 245865.8261,
  "lng": 344686.2727
 },
 {
  "id": 1124,
  "name": "퍼피샬롱(PUPPY SALON)",
  "address": "경상남도 창원시 진해구 송학동  신명약국 ",
  "lat": 351421.3843,
  "lng": 184780.3505
 },
 {
  "id": 1125,
  "name": "밀리피스",
  "address": "충청남도 서산시 석림동  호",
  "lat": 152080.2818,
  "lng": 363234.5164
 },
 {
  "id": 1126,
  "name": "댕댕이샵",
  "address": "경기도 군포시 도마교동  ",
  "lat": 192810.7962,
  "lng": 423775.5319
 },
 {
  "id": 1127,
  "name": "Scissoring made",
  "address": "경기도 남양주시 다산동  휴먼시아 ",
  "lat": 213755.1986,
  "lng": 455560.8505
 },
 {
  "id": 1128,
  "name": "몽쉘몽쉘",
  "address": "경기도 의정부시 낙양동  호",
  "lat": 209002.1061,
  "lng": 472133.3336
 },
 {
  "id": 1129,
  "name": "아이러브독 강아지 인천점",
  "phone": "032-424-6988",
  "address": "인천광역시 남동구 간석동  층 ",
  "lat": 174066.9598,
  "lng": 440815.1098
 },
 {
  "id": 1130,
  "name": "강아지 이발소",
  "address": "전라남도 완도군 완도읍 군내리  ",
  "lat": 176409.9516,
  "lng": 91188.06094
 },
 {
  "id": 1131,
  "name": "성냥깎이소년",
  "address": "경상남도 창원시 의창구 서상동  ",
  "lat": 347549.1471,
  "lng": 196425.223
 },
 {
  "id": 1132,
  "name": "코독스 강아지 배곧점",
  "address": "경기도 시흥시 배곧동  서영베니스스퀘어 ",
  "lat": 176072.6007,
  "lng": 429602.844
 },
 {
  "id": 1133,
  "name": "아르밤 펫",
  "address": "경기도 구리시 인창동  테라팰리스 Ⅱ b동 호",
  "lat": 211857.4031,
  "lng": 455702.9186
 },
 {
  "id": 1134,
  "name": "심쿵펫샵",
  "address": "경기도 고양시 덕양구 향동동  ",
  "lat": 190327.5438,
  "lng": 455604.6933
 },
 {
  "id": 1135,
  "name": "바비 펫",
  "address": "경기도 고양시 덕양구 주교동  ",
  "lat": 185262.111,
  "lng": 461811.2956
 },
 {
  "id": 1136,
  "name": "포근하개",
  "address": "경기도 수원시 권선구 금곡동  수원모아미래도센트럴타운단지 ",
  "lat": 194646.9146,
  "lng": 419291.254
 },
 {
  "id": 1138,
  "name": "히카살롱",
  "address": "서울특별시 강서구 마곡동  마곡오드카운티차 호",
  "lat": 185766.2988,
  "lng": 451358.7259
 },
 {
  "id": 1139,
  "name": "제주애견카페왈 구억점",
  "address": "제주특별자치도 서귀포시 대정읍 구억리  ",
  "lat": 134064.4998,
  "lng": -23840.2501
 },
 {
  "id": 1140,
  "name": "Mr.독",
  "address": "전라남도 순천시 연향동  ",
  "lat": 247882.7297,
  "lng": 160469.344
 },
 {
  "id": 1141,
  "name": "포테이토 독",
  "address": "강원도 원주시 단계동  ",
  "lat": 282809.845,
  "lng": 426561.095
 },
 {
  "id": 1142,
  "name": "멍블리스",
  "phone": "031-889-1119",
  "address": "경기도 용인시 수지구 죽전동  우성메디피아 ",
  "lat": 211077.3523,
  "lng": 425555.7305
 },
 {
  "id": 1143,
  "name": "온사이드",
  "address": "경기도 남양주시 퇴계원읍 퇴계원리  ",
  "lat": 212081.019,
  "lng": 460560.5964
 },
 {
  "id": 1144,
  "name": "하루산책",
  "phone": "031-221-7760",
  "address": "경기도 수원시 권선구 권선동  효헌빌딩 ",
  "lat": 201540.488,
  "lng": 417476.6167
 },
 {
  "id": 1145,
  "name": "몽펫",
  "address": "대전광역시 유성구 지족동  옥타브상가 ",
  "lat": 228448.2477,
  "lng": 320687.7332
 },
 {
  "id": 1146,
  "name": "아 건",
  "address": "인천광역시 부평구 부평동  층 ",
  "lat": 175414.2727,
  "lng": 443967.9452
 },
 {
  "id": 1147,
  "name": "뚜뚜네 미용실",
  "address": "대구광역시 동구 신서동  ",
  "lat": 356285.0166,
  "lng": 264549.892
 },
 {
  "id": 1148,
  "name": "머무름 펫",
  "address": "서울특별시 송파구 마천동  ",
  "lat": 213059.9183,
  "lng": 443905.3893
 },
 {
  "id": 1149,
  "name": "마이멍",
  "address": "서울특별시 송파구 송파동  ",
  "lat": 209999.1178,
  "lng": 444657.9255
 },
 {
  "id": 1150,
  "name": "두두 DOUX DOUX",
  "address": "서울특별시 서초구 방배동  ",
  "lat": 198646.2993,
  "lng": 442498.843
 },
 {
  "id": 1151,
  "name": "위드몽",
  "address": "경상북도 포항시 북구 장성동  ",
  "lat": 415043.3303,
  "lng": 288785.3402
 },
 {
  "id": 1152,
  "name": "퍼피플래너 강아지고양이 수원점",
  "address": "경기도 수원시 영통구 이의동  ",
  "lat": 204858.6219,
  "lng": 421337.6919
 },
 {
  "id": 1153,
  "name": "잘어울리개",
  "address": "인천광역시 서구 가정동  퍼스트프라자 ",
  "lat": 170742.6701,
  "lng": 447319.149
 },
 {
  "id": 1154,
  "name": "도그유토피아",
  "phone": "032-831-5070",
  "address": "인천광역시 연수구 송도동  인피니티타워 호",
  "lat": 168579.0362,
  "lng": 432493.1903
 },
 {
  "id": 1155,
  "name": "도기바스",
  "address": "대구광역시 달성군 현풍읍 중리  ",
  "lat": 331379.967,
  "lng": 244467.09
 },
 {
  "id": 1156,
  "name": "까리하개",
  "address": "부산광역시 동래구 온천동  SKHUBSKY ",
  "lat": 389816.233,
  "lng": 193329.6059
 },
 {
  "id": 1157,
  "name": "몽시앙",
  "address": "경상북도 안동시 태화동  ",
  "lat": 352650.4652,
  "lng": 341954.9092
 },
 {
  "id": 1158,
  "name": "블루멍 펫 테라피",
  "phone": "070-8648-3335",
  "address": "경기도 광명시 일직동  ",
  "lat": 189541.85,
  "lng": 435187.7388
 },
 {
  "id": 1159,
  "name": "봄날냥",
  "address": "서울특별시 송파구 문정동  ",
  "lat": 211072.1821,
  "lng": 442528.1932
 },
 {
  "id": 1160,
  "name": "나나펫",
  "address": "서울특별시 노원구 중계동  ",
  "lat": 207156.5933,
  "lng": 460994.8257
 },
 {
  "id": 1161,
  "name": "스니스니",
  "address": "경기도 부천시 옥길동  부천옥길 서영아너시티 ",
  "lat": 184361.065,
  "lng": 440665.3375
 },
 {
  "id": 1162,
  "name": "꼬숲",
  "address": "전라남도 여수시 신기동  ",
  "lat": 261609.2683,
  "lng": 140702.032
 },
 {
  "id": 1163,
  "name": "제이스그루밍",
  "address": "전라북도 전주시 완산구 효자동가  ",
  "lat": 208959.4633,
  "lng": 259520.3357
 },
 {
  "id": 1164,
  "name": "몽실",
  "address": "전라북도 전주시 덕진구 만성동  ",
  "lat": 206543.4701,
  "lng": 259923.6638
 },
 {
  "id": 1165,
  "name": "강아지의 하루",
  "address": "경기도 수원시 권선구 금곡동  로얄팰리스차 ",
  "lat": 195969.3965,
  "lng": 419262.3849
 },
 {
  "id": 1166,
  "name": "왓숑",
  "address": "광주광역시 서구 치평동  중흥에스클래스스카이 ",
  "lat": 186340.5305,
  "lng": 184273.8672
 },
 {
  "id": 1167,
  "name": "더 스마일독",
  "address": "대구광역시 수성구 상동  ",
  "lat": 345461.5392,
  "lng": 259927.0374
 },
 {
  "id": 1168,
  "name": "막둥이네",
  "address": "부산광역시 강서구 신호동  ",
  "lat": 370724.7256,
  "lng": 177503.4903
 },
 {
  "id": 1169,
  "name": "마이 뷰티 독",
  "address": "서울특별시 강남구 역삼동  제이유 ",
  "lat": 203513.0565,
  "lng": 444190.7596
 },
 {
  "id": 1170,
  "name": "멍데이",
  "phone": "055-713-5855",
  "address": "경상남도 창원시 진해구 용원동  ",
  "lat": 365481.0371,
  "lng": 177966.2936
 },
 {
  "id": 1171,
  "name": "러블리펫",
  "phone": "055-296-0999",
  "address": "경상남도 창원시 의창구 서상동  ",
  "lat": 347314.7925,
  "lng": 197408.0206
 },
 {
  "id": 1172,
  "name": "THE 이쁘개",
  "address": "경상남도 창원시 마산회원구 내서읍 삼계리  숲속마을주공단지아파트 ",
  "lat": 336287.5252,
  "lng": 193175.3632
 },
 {
  "id": 1173,
  "name": "핑크퍼피",
  "address": "대전광역시 동구 용운동  ",
  "lat": 241273.6567,
  "lng": 314075.4962
 },
 {
  "id": 1174,
  "name": "독포유",
  "phone": "032-835-6777",
  "address": "인천광역시 연수구 송도동  더샵 센트럴파크 ",
  "lat": 168141.7087,
  "lng": 432551.8997
 },
 {
  "id": 1175,
  "name": "봉쥬르 살롱",
  "address": "서울특별시 강북구 수유동  ",
  "lat": 200986.8605,
  "lng": 460606.4461
 },
 {
  "id": 1176,
  "name": "털빨충전중",
  "address": "경기도 화성시 장지동  ",
  "lat": 209301.7226,
  "lng": 406377.6133
 },
 {
  "id": 1177,
  "name": "아루몽",
  "address": "경기도 화성시 오산동  동탄역 반도유보라 아이비파크 . ",
  "lat": 207837.1259,
  "lng": 411244.4678
 },
 {
  "id": 1178,
  "name": "지니펫",
  "address": "경상북도 경산시 정평동  ",
  "lat": 356207.7922,
  "lng": 260961.5576
 },
 {
  "id": 1179,
  "name": "꽃님이네",
  "address": "충청북도 진천군 문백면 봉죽리  ",
  "lat": 238705.9132,
  "lng": 364723.6937
 },
 {
  "id": 1180,
  "name": "디바인독(DIVINE DOG)",
  "address": "경기도 용인시 기흥구 중동  ",
  "lat": 212520.39,
  "lng": 420099.8218
 },
 {
  "id": 1181,
  "name": "달콤냥",
  "address": "경기도 군포시 금정동  성진히나스 ",
  "lat": 194381.2633,
  "lng": 428758.6048
 },
 {
  "id": 1182,
  "name": "루시드펫",
  "address": "경기도 남양주시 화도읍 월산리  ",
  "lat": 229459.8698,
  "lng": 461430.6084
 },
 {
  "id": 1183,
  "name": "아이펫살롱",
  "address": "인천광역시 동구 송림동  ",
  "lat": 168947.1443,
  "lng": 441159.0426
 },
 {
  "id": 1184,
  "name": "도그몽드",
  "address": "대구광역시 남구 대명동  나동 ",
  "lat": 342916.9844,
  "lng": 262697.3563
 },
 {
  "id": 1185,
  "name": "헤아림 동물병원",
  "address": "경상남도 거제시 아주동  ",
  "lat": 354323.6092,
  "lng": 153156.267
 },
 {
  "id": 1186,
  "name": "가장 아름답개",
  "address": "강원도 속초시 교동  ",
  "lat": 338403.6744,
  "lng": 523090.6093
 },
 {
  "id": 1187,
  "name": "몽구리DOG",
  "address": "강원도 춘천시 근화동  ",
  "lat": 263585.3713,
  "lng": 487980.7147
 },
 {
  "id": 1188,
  "name": "헤이뚜뚜",
  "address": "경기도 파주시 목동동  ",
  "lat": 176895.6711,
  "lng": 468926.5572
 },
 {
  "id": 1189,
  "name": "딩동댕치원",
  "address": "부산광역시 기장군 정관읍 매학리  ",
  "lat": 397801.2386,
  "lng": 204661.7615
 },
 {
  "id": 1190,
  "name": "다독",
  "address": "부산광역시 부산진구 전포동  ",
  "lat": 388364.3971,
  "lng": 186281.8992
 },
 {
  "id": 1191,
  "name": "산책",
  "address": "서울특별시 강남구 논현동  ",
  "lat": 202178.8734,
  "lng": 446093.9321
 },
 {
  "id": 1192,
  "name": "강아지집",
  "address": "서울특별시 강남구 삼성동  ",
  "lat": 204300.4358,
  "lng": 445788.3808
 },
 {
  "id": 1193,
  "name": "대주사료 애견샵",
  "address": "충청남도 당진시 읍내동  대주사료, 둥지다방 ",
  "lat": 167021.1741,
  "lng": 376458.0973
 },
 {
  "id": 1194,
  "name": "함께냥 평택점",
  "address": "경기도 평택시 비전동  ",
  "lat": 209920.1314,
  "lng": 389189.2608
 },
 {
  "id": 1195,
  "name": "복탄산수",
  "address": "인천광역시 부평구 부개동  새한빌딩 호",
  "lat": 176879.6348,
  "lng": 442923.9567
 },
 {
  "id": 1196,
  "name": "디디그루밍",
  "address": "서울특별시 중랑구 상봉동  한일써너스빌 ",
  "lat": 207982.8108,
  "lng": 454980.0238
 },
 {
  "id": 1197,
  "name": "강아지 미용실",
  "address": "서울특별시 중랑구 묵동  ",
  "lat": 206880.6348,
  "lng": 456972.9365
 },
 {
  "id": 1198,
  "name": "어나더미용실",
  "address": "충청북도 청주시 청원구 율량동  호",
  "lat": 243669.7328,
  "lng": 352085.608
 },
 {
  "id": 1199,
  "name": "멈머야",
  "address": "충청남도 당진시 송악읍 기지시리  ",
  "lat": 172397.8089,
  "lng": 378227.6391
 },
 {
  "id": 1200,
  "name": "개르띠에",
  "address": "경상남도 창원시 진해구 용원동  센트럴타워 ",
  "lat": 365529.0351,
  "lng": 177967.2691
 },
 {
  "id": 1201,
  "name": "댕펫",
  "address": "경기도 양주시 광사동  ",
  "lat": 206976.1071,
  "lng": 476394.4493
 },
 {
  "id": 1202,
  "name": "빵독 반려미용실",
  "address": "경상북도 구미시 사곡동  ",
  "lat": 322118.1234,
  "lng": 289142.2363
 },
 {
  "id": 1203,
  "name": "꽃보다 강아지",
  "address": "경상북도 포항시 북구 대흥동  ",
  "lat": 412786.544,
  "lng": 284236.4869
 },
 {
  "id": 1204,
  "name": "꼬모의 산책",
  "phone": "031-591-9393",
  "address": "경기도 남양주시 호평동  두산 알프하임 B동 호",
  "lat": 222406.6576,
  "lng": 460923.0289
 },
 {
  "id": 1205,
  "name": "개신남5호점",
  "address": "울산광역시 북구 양정동  양정힐스테이트 동 호",
  "lat": 416057.086,
  "lng": 230506.1934
 },
 {
  "id": 1206,
  "name": "몽개GROOM",
  "address": "부산광역시 기장군 일광읍 삼성리  ",
  "lat": 402151.2974,
  "lng": 198653.1094
 },
 {
  "id": 1207,
  "name": "서면펫살롱",
  "phone": "051-802-7702",
  "address": "부산광역시 부산진구 부전동  ",
  "lat": 387424.986,
  "lng": 186449.7326
 },
 {
  "id": 1208,
  "name": "안아줄개",
  "phone": "02-2698-0125",
  "address": "서울특별시 양천구 신월동  층 ",
  "lat": 185480.9851,
  "lng": 447837.5108
 },
 {
  "id": 1209,
  "name": "럽퍼피",
  "address": "서울특별시 광진구 중곡동  층 ",
  "lat": 206521.4638,
  "lng": 451031.251
 },
 {
  "id": 1210,
  "name": "벨르시앙",
  "address": "경상남도 창원시 의창구 사림동  ",
  "lat": 354744.208,
  "lng": 194567.6312
 },
 {
  "id": 1211,
  "name": "펫스토리",
  "address": "전라남도 나주시 남평읍 동사리  에스티엑스칸 중우하나린 동 호",
  "lat": 186489.7629,
  "lng": 171233.0222
 },
 {
  "id": 1212,
  "name": "오늘도 멍멍",
  "address": "경기도 용인시 처인구 역북동  호",
  "lat": 216916.2682,
  "lng": 415192.5541
 },
 {
  "id": 1213,
  "name": "복실이네애견미용실",
  "address": "경기도 하남시 감일동  호",
  "lat": 214386.7672,
  "lng": 445272.9179
 },
 {
  "id": 1214,
  "name": "멍 브라운",
  "address": "경기도 평택시 비전동  ",
  "lat": 210029.0674,
  "lng": 389070.6332
 },
 {
  "id": 1215,
  "name": "내사랑 강아지",
  "phone": "031-653-6663",
  "address": "경기도 평택시 평택동  ",
  "lat": 207447.5182,
  "lng": 388102.4694
 },
 {
  "id": 1216,
  "name": "댕댕이 미용실",
  "address": "인천광역시 부평구 갈산동  동아아파트 상가 제층 제호 ",
  "lat": 176077.3075,
  "lng": 445435.5519
 },
 {
  "id": 1217,
  "name": "도도하개",
  "address": "서울특별시 강서구 마곡동  마곡그랑트윈타워 B동 호",
  "lat": 184786.585,
  "lng": 450708.875
 },
 {
  "id": 1218,
  "name": "바스인더썬",
  "address": "서울특별시 성북구 장위동  ",
  "lat": 204154.6298,
  "lng": 457221.5134
 },
 {
  "id": 1219,
  "name": "그루밍베베",
  "address": "경기도 하남시 망월동  더퍼스트테라스 호",
  "lat": 216712.9359,
  "lng": 451163.0711
 },
 {
  "id": 1220,
  "name": "댕그레",
  "address": "경기도 구리시 인창동  현산빌딩 ",
  "lat": 211627.6563,
  "lng": 456360.9409
 },
 {
  "id": 1221,
  "name": "펫스토리(pet story)",
  "address": "부산광역시 연제구 연산동  ",
  "lat": 389911.4057,
  "lng": 189544.5807
 },
 {
  "id": 1222,
  "name": "일랑일랑",
  "address": "서울특별시 강남구 역삼동  ",
  "lat": 203179.907,
  "lng": 444847.2728
 },
 {
  "id": 1223,
  "name": "몽이마을",
  "phone": "031-225-7925",
  "address": "경기도 화성시 봉담읍 와우리  ",
  "lat": 197666.5646,
  "lng": 412858.8092
 },
 {
  "id": 1224,
  "name": "까까댕",
  "address": "경기도 화성시 장지동  ",
  "lat": 210033.4794,
  "lng": 405969.1543
 },
 {
  "id": 1225,
  "name": "재롱이네",
  "phone": "063-461-1400",
  "address": "전라북도 군산시 산북동  코오롱아파트 제상가동 호",
  "lat": 171216.6757,
  "lng": 274316.6263
 },
 {
  "id": 1226,
  "name": "메리펫살롱",
  "address": "서울특별시 강남구 역삼동  역삼프라자 ",
  "lat": 204335.0708,
  "lng": 443709.2833
 },
 {
  "id": 1227,
  "name": "선샤인동물병원",
  "phone": "054-453-8585",
  "address": "경상북도 구미시 도량동  ",
  "lat": 318407.082,
  "lng": 293578.4938
 },
 {
  "id": 1228,
  "name": "도담쁘띠몽",
  "phone": "033-910-0940",
  "address": "강원도 춘천시 온의동  ",
  "lat": 262652.3443,
  "lng": 484334.1722
 },
 {
  "id": 1229,
  "name": "뿜뿜",
  "address": "경기도 용인시 기흥구 보라동  메디프라자 ",
  "lat": 209498.6466,
  "lng": 416525.1947
 },
 {
  "id": 1230,
  "name": "멍시티",
  "address": "광주광역시 북구 유동  ",
  "lat": 191405.9098,
  "lng": 184517.013
 },
 {
  "id": 1231,
  "name": "모먼트인",
  "address": "서울특별시 강서구 등촌동  ",
  "lat": 187409.9075,
  "lng": 450371.0168
 },
 {
  "id": 1232,
  "name": "어화둥둥 내강아지",
  "address": "경기도 포천시 신읍동  ",
  "lat": 218192.0711,
  "lng": 488891.438
 },
 {
  "id": 1233,
  "name": "고마워 복실아",
  "address": "전라북도 전주시 덕진구 우아동가  ",
  "lat": 215661.2129,
  "lng": 258534.587
 },
 {
  "id": 1234,
  "name": "홀리독",
  "address": "경기도 김포시 장기동  ",
  "lat": 171062.7389,
  "lng": 460331.7411
 },
 {
  "id": 1235,
  "name": "(주)베프",
  "address": "경기도 이천시 마장면 표교리  ",
  "lat": 236540.1533,
  "lng": 416495.3762
 },
 {
  "id": 1236,
  "name": "댕댕이랑",
  "phone": "032-362-7976",
  "address": "인천광역시 부평구 부평동  태승빌딩 층 ",
  "lat": 175465.6743,
  "lng": 442994.5038
 },
 {
  "id": 1237,
  "name": "토브 펫 살롱",
  "address": "서울특별시 강동구 성내동  ",
  "lat": 210835.1286,
  "lng": 447796.6966
 },
 {
  "id": 1238,
  "name": "러블리펫",
  "address": "경기도 광주시 역동  ",
  "lat": 222226.9967,
  "lng": 433862.8575
 },
 {
  "id": 1239,
  "name": "러블리 독",
  "address": "경상북도 경주시 용강동  협성휴포레용황 동 호",
  "lat": 401050.7754,
  "lng": 267236.8339
 },
 {
  "id": 1240,
  "name": "딩굴댕굴 애견호텔유치원",
  "address": "충청남도 천안시 서북구 두정동  열매빌딩 ",
  "lat": 212603.0484,
  "lng": 370347.7333
 },
 {
  "id": 1241,
  "name": "로아동물병원",
  "phone": "031-399-8875",
  "address": "경기도 군포시 산본동  ",
  "lat": 194286.5342,
  "lng": 430093.5384
 },
 {
  "id": 1242,
  "name": "로즈멍",
  "address": "인천광역시 부평구 갈산동  층 호",
  "lat": 175917.095,
  "lng": 445357.655
 },
 {
  "id": 1243,
  "name": "댕댕이의 품격",
  "address": "대구광역시 달서구 월성동  그루조암타워 ",
  "lat": 337237.8875,
  "lng": 259014.339
 },
 {
  "id": 1244,
  "name": "꽃길만 걷장",
  "address": "서울특별시 은평구 증산동  ",
  "lat": 191582.3232,
  "lng": 453325.3704
 },
 {
  "id": 1245,
  "name": "엘리자바스(ElizaBath)",
  "address": "서울특별시 강남구 논현동  ",
  "lat": 202799.2589,
  "lng": 446096.6712
 },
 {
  "id": 1246,
  "name": "스텔라 그루밍",
  "address": "경상남도 창원시 마산회원구 합성동  ",
  "lat": 344557.5003,
  "lng": 194577.5825
 },
 {
  "id": 1247,
  "name": "으나펫",
  "address": "경기도 하남시 망월동  퀸즈파크 미사차 호",
  "lat": 217212.022,
  "lng": 451170.6133
 },
 {
  "id": 1248,
  "name": "루미몽",
  "address": "경기도 부천시 심곡동  퍼스트뷰 ",
  "lat": 180931.9485,
  "lng": 443864.1578
 },
 {
  "id": 1249,
  "name": "리브동물의료센터",
  "phone": "032-567-2475",
  "address": "인천광역시 서구 왕길동  검단KB빌딩 ",
  "lat": 169467.1948,
  "lng": 455504.6607
 },
 {
  "id": 1250,
  "name": "꼬무별",
  "address": "부산광역시 금정구 부곡동  ",
  "lat": 390228.795,
  "lng": 193143.2266
 },
 {
  "id": 1251,
  "name": "들려보개 동탄산척점",
  "address": "경기도 화성시 산척동  레이크힐 반도유보라 아이비파크 . ",
  "lat": 211415.987,
  "lng": 407047.897
 },
 {
  "id": 1252,
  "name": "멍캐슬",
  "phone": "063-918-5444",
  "address": "전라북도 익산시 어양동  ",
  "lat": 198358.955,
  "lng": 273134.3433
 },
 {
  "id": 1253,
  "name": "멍실묭실",
  "address": "강원도 평창군 용평면 장평리  ",
  "lat": 324863.1341,
  "lng": 454606.5104
 },
 {
  "id": 1254,
  "name": "퍼피움",
  "address": "광주광역시 서구 금호동  ",
  "lat": 186319.4435,
  "lng": 180934.206
 },
 {
  "id": 1255,
  "name": "멍헤어 애견미용실",
  "address": "경상북도 영천시 조교동  영화빌딩 ",
  "lat": 375832.2559,
  "lng": 276244.8929
 },
 {
  "id": 1256,
  "name": "오늘, 더 예쁘게",
  "address": "인천광역시 부평구 부개동  층 호",
  "lat": 176459.8204,
  "lng": 443564.3112
 },
 {
  "id": 1257,
  "name": "개러리아 송파점",
  "address": "서울특별시 송파구 오금동  데코판넬(주) ",
  "lat": 212219.2771,
  "lng": 444690.4336
 },
 {
  "id": 1258,
  "name": "이쁘냥 고양이 미용실 익산점",
  "address": "전라북도 익산시 마동  ",
  "lat": 196348.9996,
  "lng": 270597.1873
 },
 {
  "id": 1259,
  "name": "멍스타일",
  "address": "경기도 수원시 장안구 연무동  ",
  "lat": 202609.3933,
  "lng": 421947.855
 },
 {
  "id": 1260,
  "name": "이솜 동물병원",
  "address": "대전광역시 유성구 지족동  계룡프라자 ",
  "lat": 228502.245,
  "lng": 319337.4078
 },
 {
  "id": 1261,
  "name": "이솜 동물병원",
  "address": "대전광역시 유성구 지족동  계룡프라자 ",
  "lat": 228502.245,
  "lng": 319337.4078
 },
 {
  "id": 1262,
  "name": "옐로우퍼피",
  "address": "서울특별시 구로구 구로동  대림역포스큐 호",
  "lat": 190378.6793,
  "lng": 444001.7313
 },
 {
  "id": 1263,
  "name": "보니또펫",
  "address": "경상남도 거제시 아주동  거제 아주 코오롱 하늘채 ",
  "lat": 354141.7193,
  "lng": 153487.9321
 },
 {
  "id": 1264,
  "name": "모찌네 살롱(Salon de mozzi)",
  "address": "광주광역시 남구 양과동  ",
  "lat": 187696.5741,
  "lng": 176751.8446
 },
 {
  "id": 1265,
  "name": "더퍼스트펫살롱",
  "address": "경상남도 진주시 신안동  ",
  "lat": 297256.9203,
  "lng": 186764.6515
 },
 {
  "id": 1266,
  "name": "멍블랑",
  "address": "전라남도 목포시 산정동  삼학타운아파트 상가동 ",
  "lat": 145129.8683,
  "lng": 144106.155
 },
 {
  "id": 1268,
  "name": "재롱이네",
  "phone": "032-512-2340",
  "address": "인천광역시 부평구 부평동  호",
  "lat": 175160.6799,
  "lng": 442601.271
 },
 {
  "id": 1269,
  "name": "댕댕이 이발소",
  "phone": "032-243-7811",
  "address": "인천광역시 부평구 십정동  층 호",
  "lat": 172911.2396,
  "lng": 440987.3582
 },
 {
  "id": 1270,
  "name": "mm애견공방",
  "address": "서울특별시 송파구 잠실동  ",
  "lat": 207470.7127,
  "lng": 444798.5028
 },
 {
  "id": 1271,
  "name": "예쁘개",
  "address": "경상남도 통영시 도천동  만복도천비취맨션차 ",
  "lat": 329415.7546,
  "lng": 149864.2625
 },
 {
  "id": 1272,
  "name": "도그레이",
  "address": "경기도 용인시 기흥구 신갈동  ",
  "lat": 209351.2761,
  "lng": 420405.5306
 },
 {
  "id": 1273,
  "name": "멍스타일",
  "phone": "031-618-0279",
  "address": "경기도 평택시 용이동  ",
  "lat": 213046.7773,
  "lng": 388830.7065
 },
 {
  "id": 1274,
  "name": "헤이 복디(Hey, Bokdi)",
  "address": "서울특별시 도봉구 창동  ",
  "lat": 203181.9542,
  "lng": 459548.4539
 },
 {
  "id": 1275,
  "name": "멍뷰티샵",
  "address": "세종특별자치시 조치원읍 침산리  욱일아파트 ",
  "lat": 226143.1541,
  "lng": 344640.2855
 },
 {
  "id": 1276,
  "name": "윤실장 펫샵",
  "address": "경상남도 거제시 능포동  ",
  "lat": 358321.026,
  "lng": 154533.7393
 },
 {
  "id": 1277,
  "name": "삐삐 펫살롱",
  "address": "경상남도 거제시 능포동  동림상가 ",
  "lat": 358285.5298,
  "lng": 154450.3168
 },
 {
  "id": 1278,
  "name": "깔롱펫",
  "address": "울산광역시 남구 신정동  ",
  "lat": 408538.1085,
  "lng": 228498.8758
 },
 {
  "id": 1279,
  "name": "효효그루밍",
  "address": "부산광역시 동래구 안락동  ",
  "lat": 390968.806,
  "lng": 191092.5735
 },
 {
  "id": 1280,
  "name": "네발로오시개",
  "address": "서울특별시 양천구 신월동  승일뷰티타워 ",
  "lat": 185962.8095,
  "lng": 446176.171
 },
 {
  "id": 1281,
  "name": "슈슈몽",
  "address": "경기도 광주시 쌍령동  ",
  "lat": 223677.9442,
  "lng": 433682.3231
 },
 {
  "id": 1282,
  "name": "펫타운(펫분양)",
  "address": "강원도 원주시 개운동  ",
  "lat": 284054.081,
  "lng": 426344.3937
 },
 {
  "id": 1283,
  "name": "미래애견",
  "phone": "031-312-2625",
  "address": "경기도 시흥시 신천동  염광교회 ",
  "lat": 181574.7992,
  "lng": 436624.8585
 },
 {
  "id": 1285,
  "name": "영종H동물의료센터",
  "phone": "032-752-7515",
  "address": "인천광역시 중구 중산동  ",
  "lat": 160923.7217,
  "lng": 443038.2785
 },
 {
  "id": 1286,
  "name": "뽀송뽀송 강아지미용실",
  "address": "경상남도 김해시 삼방동  ",
  "lat": 374107.414,
  "lng": 195412.8834
 },
 {
  "id": 1287,
  "name": "마르숑",
  "address": "경기도 성남시 중원구 금광동  ",
  "lat": 214191.0921,
  "lng": 438134.7081
 },
 {
  "id": 1288,
  "name": "그루밍051",
  "address": "부산광역시 부산진구 범전동  삼한골든뷰 센트럴파크 ",
  "lat": 387939.473,
  "lng": 187062.5227
 },
 {
  "id": 1289,
  "name": "아모르 몽",
  "address": "세종특별자치시 고운동  가락마을 단지 ",
  "lat": 221170.3074,
  "lng": 334079.8827
 },
 {
  "id": 1290,
  "name": "돌담펫호텔",
  "address": "경기도 광주시 도척면 추곡리  ",
  "lat": 225949.0658,
  "lng": 419421.371
 },
 {
  "id": 1291,
  "name": "동탄시티동물의료센터(시티Dog애견미용)",
  "phone": "031-8003-7535",
  "address": "경기도 화성시 반송동  정일프라자 ",
  "lat": 205416.5011,
  "lng": 411942.9803
 },
 {
  "id": 1293,
  "name": "하몽하몽",
  "address": "경기도 광명시 소하동  신촌휴먼시아단지아파트 ",
  "lat": 190382.1748,
  "lng": 438623.3289
 },
 {
  "id": 1294,
  "name": "꼬몽",
  "address": "경상남도 김해시 주촌면 천곡리  ",
  "lat": 367246.6757,
  "lng": 193980.4691
 },
 {
  "id": 1295,
  "name": "쁘띠꾸숑",
  "address": "전라남도 완도군 완도읍 군내리  ",
  "lat": 177373.8923,
  "lng": 90747.58162
 },
 {
  "id": 1296,
  "name": "몽냥몽냥",
  "address": "경기도 안산시 단원구 와동  ",
  "lat": 184078.2718,
  "lng": 426698.1735
 },
 {
  "id": 1297,
  "name": "둥가둥가 펫살롱",
  "address": "서울특별시 양천구 신월동  ",
  "lat": 185093.4189,
  "lng": 446483.8093
 },
 {
  "id": 1298,
  "name": "mina grooming (미나그루밍)",
  "address": "제주특별자치도 제주시 한림읍 한림리  ",
  "lat": 131081.5056,
  "lng": -8954.148108
 },
 {
  "id": 1299,
  "name": "퍼피루미",
  "address": "경기도 포천시 소흘읍 송우리  ",
  "lat": 212651.7189,
  "lng": 480710.7712
 },
 {
  "id": 1300,
  "name": "뽀송이 멍살롱",
  "address": "전라북도 군산시 조촌동  층 호",
  "lat": 176744.591,
  "lng": 275094.1054
 },
 {
  "id": 1301,
  "name": "펫하우스(애견샵)",
  "phone": "031-946-4241",
  "address": "경기도 파주시 와동동  가람마을단지 한양수자인 ",
  "lat": 178608.275,
  "lng": 470151.3574
 },
 {
  "id": 1302,
  "name": "아이DOG",
  "address": "경기도 의정부시 고산동  정음마을 고산단지 ",
  "lat": 210216.2863,
  "lng": 471119.8065
 },
 {
  "id": 1303,
  "name": "주식회사 개신남",
  "address": "서울특별시 강남구 역삼동  ",
  "lat": 204189.3553,
  "lng": 444532.9928
 },
 {
  "id": 1304,
  "name": "뽀송캣",
  "address": "서울특별시 관악구 신림동  ",
  "lat": 193845.1609,
  "lng": 442239.8142
 },
 {
  "id": 1305,
  "name": "삐삐그루밍",
  "address": "제주특별자치도 서귀포시 대정읍 구억리  ",
  "lat": 133420.5362,
  "lng": -23708.48815
 },
 {
  "id": 1306,
  "name": "따숩",
  "address": "경기도 화성시 봉담읍 상리  리움 호",
  "lat": 195090.4931,
  "lng": 413397.8402
 },
 {
  "id": 1307,
  "name": "코코펫",
  "address": "서울특별시 도봉구 창동  타임프라자 호",
  "lat": 203589.2056,
  "lng": 461471.4723
 },
 {
  "id": 1308,
  "name": "베이비도그",
  "address": "충청북도 청주시 서원구 산남동  호",
  "lat": 242068.7964,
  "lng": 345263.8441
 },
 {
  "id": 1309,
  "name": "데이지 독",
  "address": "경기도 양주시 고암동  ",
  "lat": 206503.9263,
  "lng": 481068.4094
 },
 {
  "id": 1310,
  "name": "꽃댕",
  "address": "경상북도 영천시 야사동  ",
  "lat": 375453.7051,
  "lng": 276652.1223
 },
 {
  "id": 1311,
  "name": "보송보송",
  "address": "강원도 원주시 무실동  ",
  "lat": 282452.8519,
  "lng": 425302.4874
 },
 {
  "id": 1312,
  "name": "루루펫살롱",
  "phone": "033-252-7543",
  "address": "강원도 춘천시 우두동  동부아파트 상가동 호",
  "lat": 264352.7212,
  "lng": 488666.4192
 },
 {
  "id": 1313,
  "name": "ALISSA 앨리사 펫살롱",
  "address": "서울특별시 마포구 신수동  신촌숲아이파크 ",
  "lat": 194134.5527,
  "lng": 449869.275
 },
 {
  "id": 1314,
  "name": "몽story",
  "phone": "064-711-9979",
  "address": "제주특별자치도 제주시 애월읍 하귀리  ",
  "lat": 145648.9659,
  "lng": -1218.103055
 },
 {
  "id": 1315,
  "name": "댕댕이발소",
  "phone": "031-832-5559",
  "address": "경기도 연천군 전곡읍 전곡리  제일상가 ",
  "lat": 206057.7671,
  "lng": 502397.3167
 },
 {
  "id": 1316,
  "name": "웨그앤코(WAG&CO)",
  "address": "경기도 용인시 기흥구 동백동  용인동백두산위브더제니스 ",
  "lat": 213236.739,
  "lng": 420227.5084
 },
 {
  "id": 1317,
  "name": "재즈펫살롱",
  "address": "경기도 고양시 일산동구 백석동  흰돌마을단지아파트 호",
  "lat": 180731.1482,
  "lng": 460645.0885
 },
 {
  "id": 1318,
  "name": "펫지살롱",
  "address": "인천광역시 남동구 논현동  가온우노시티 하버파크 층 호",
  "lat": 176474.4169,
  "lng": 432976.7144
 },
 {
  "id": 1320,
  "name": "설이네 펫살롱",
  "address": "전라북도 군산시 지곡동  호",
  "lat": 174143.3045,
  "lng": 272805.5118
 },
 {
  "id": 1321,
  "name": "마주봄펫",
  "address": "전라북도 군산시 수송동  층 호",
  "lat": 174619.5149,
  "lng": 273448.8559
 },
 {
  "id": 1322,
  "name": "THE DOG SALON",
  "address": "경기도 파주시 야당동  ",
  "lat": 178750.7229,
  "lng": 467242.8896
 },
 {
  "id": 1323,
  "name": "바니펫살롱",
  "address": "경기도 고양시 덕양구 삼송동  힐스테이트삼송역스칸센 호",
  "lat": 191188.3649,
  "lng": 461198.5094
 },
 {
  "id": 1324,
  "name": "온니캣(ONLY CAT)",
  "address": "경기도 평택시 이충동  ",
  "lat": 204969.1651,
  "lng": 395042.1633
 },
 {
  "id": 1325,
  "name": "설 grooming",
  "address": "대구광역시 달서구 송현동  ",
  "lat": 339918.2584,
  "lng": 260467.8964
 },
 {
  "id": 1326,
  "name": "도꾸야",
  "phone": "053-202-0059",
  "address": "대구광역시 북구 태전동  층 ",
  "lat": 339525.0867,
  "lng": 270418.5028
 },
 {
  "id": 1327,
  "name": "시민동물병원",
  "address": "경기도 광주시 장지동  ",
  "lat": 221469.0146,
  "lng": 432556.4944
 },
 {
  "id": 1328,
  "name": "멈머",
  "address": "경상남도 거창군 거창읍 송정리  ",
  "lat": 281530.9985,
  "lng": 242738.8472
 },
 {
  "id": 1329,
  "name": "사랑펫살롱",
  "address": "경기도 여주시 교동  ",
  "lat": 256315.3117,
  "lng": 419387.4343
 },
 {
  "id": 1330,
  "name": "애견의숲",
  "address": "경상북도 경산시 중방동  ",
  "lat": 356738.6471,
  "lng": 260221.0105
 },
 {
  "id": 1331,
  "name": "뭉개구름",
  "address": "경상북도 경산시 압량읍 신대리  ",
  "lat": 359512.0099,
  "lng": 261374.9751
 },
 {
  "id": 1332,
  "name": "더 빛나개(the 빛나개)",
  "address": "경상북도 경산시 삼북동  ",
  "lat": 357127.2755,
  "lng": 259213.3394
 },
 {
  "id": 1333,
  "name": "웰니스동물병원",
  "address": "경기도 안산시 상록구 성포동  롯데마트 ",
  "lat": 186396.0677,
  "lng": 423947.2364
 },
 {
  "id": 1334,
  "name": "퍼피스토리",
  "address": "경기도 수원시 영통구 하동  광교 더샵 레이크파크 ",
  "lat": 205498.5405,
  "lng": 420562.0743
 },
 {
  "id": 1335,
  "name": "허니댕댕",
  "address": "부산광역시 강서구 명지동  ",
  "lat": 374874.0447,
  "lng": 179399.726
 },
 {
  "id": 1336,
  "name": "딩동 펫 살롱",
  "address": "부산광역시 강서구 명지동  더샵 명지퍼스트월드 단지 ",
  "lat": 373753.9875,
  "lng": 179343.1529
 },
 {
  "id": 1337,
  "name": "멍크라운",
  "address": "부산광역시 동구 초량동  ",
  "lat": 385955.2248,
  "lng": 181824.2274
 },
 {
  "id": 1338,
  "name": "나리울 동물병원",
  "address": "서울특별시 강남구 일원동  디에이치 자이 개포 ",
  "lat": 206573.6482,
  "lng": 443195.1892
 },
 {
  "id": 1339,
  "name": "펫바스로 동탄",
  "address": "경기도 화성시 영천동  ",
  "lat": 209875.7811,
  "lng": 411857.1796
 },
 {
  "id": 1340,
  "name": "애견마을",
  "phone": "055-646-5851",
  "address": "경상남도 통영시 북신동  ",
  "lat": 330036.06,
  "lng": 151975.8389
 },
 {
  "id": 1341,
  "name": "개이쁨",
  "address": "경상북도 경산시 정평동  ",
  "lat": 356188.6281,
  "lng": 260917.0521
 },
 {
  "id": 1342,
  "name": "멍띠끄",
  "address": "충청남도 천안시 서북구 성정동  학산리젠다빌차 ",
  "lat": 212236.2001,
  "lng": 369609.08
 },
 {
  "id": 1343,
  "name": "러브도그샵",
  "address": "경상남도 김해시 삼방동  호",
  "lat": 374124.2007,
  "lng": 195083.3122
 },
 {
  "id": 1344,
  "name": "펫마밍(Pet maming)",
  "address": "경상북도 청도군 청도읍 고수리  ",
  "lat": 358362.1238,
  "lng": 239122.5762
 },
 {
  "id": 1345,
  "name": "빛나개해줄개",
  "address": "경기도 안산시 단원구 고잔동  ",
  "lat": 183845.7005,
  "lng": 425236.9079
 },
 {
  "id": 1346,
  "name": "몽글몽글 애견유치원",
  "address": "경기도 안산시 상록구 본오동  ",
  "lat": 188607.0771,
  "lng": 421239.8844
 },
 {
  "id": 1347,
  "name": "시옷, seeott",
  "phone": "032-655-4111",
  "address": "경기도 부천시 중동  연화마을 ",
  "lat": 180529.1981,
  "lng": 443847.65
 },
 {
  "id": 1348,
  "name": "이츠펫 세종점",
  "phone": "044-863-0072",
  "address": "세종특별자치시 다정동  포스트 ",
  "lat": 221360.9904,
  "lng": 332828.6162
 },
 {
  "id": 1349,
  "name": "라니멍실",
  "address": "경상남도 창원시 마산합포구 현동  ",
  "lat": 341613.6957,
  "lng": 184064.9071
 },
 {
  "id": 1350,
  "name": "두루미네",
  "address": "경상북도 구미시 진평동  ",
  "lat": 327609.1002,
  "lng": 290262.2291
 },
 {
  "id": 1351,
  "name": "몽가펫",
  "address": "경상북도 포항시 남구 효자동  ",
  "lat": 411015.8082,
  "lng": 280852.4829
 },
 {
  "id": 1352,
  "name": "바라다 동물병원",
  "phone": "031-876-7582",
  "address": "경기도 의정부시 의정부동  ",
  "lat": 204161.8562,
  "lng": 470551.79
 },
 {
  "id": 1353,
  "name": "보담펫",
  "phone": "02-971-0045",
  "address": "서울특별시 노원구 공릉동  층 ",
  "lat": 206312.8238,
  "lng": 458385.2973
 },
 {
  "id": 1354,
  "name": "더해피도그",
  "address": "경기도 김포시 사우동  펠리스 ",
  "lat": 175312.0859,
  "lng": 457689.1527
 },
 {
  "id": 1355,
  "name": "뽀독 FOR DOG",
  "phone": "031-665-0024",
  "address": "경기도 평택시 신장동  ",
  "lat": 204859.6016,
  "lng": 397350.5065
 },
 {
  "id": 1356,
  "name": "아가펫",
  "address": "대전광역시 서구 정림동  ",
  "lat": 232962.8333,
  "lng": 311876.7667
 },
 {
  "id": 1357,
  "name": "커몽커몽펫",
  "address": "광주광역시 서구 풍암동  우미광장아파트 상가건물 동 호",
  "lat": 189091.3283,
  "lng": 180854.438
 },
 {
  "id": 1358,
  "name": "살롱드멍멍",
  "phone": "070-8800-3844",
  "address": "부산광역시 연제구 거제동  ",
  "lat": 389007.1217,
  "lng": 189772.7501
 },
 {
  "id": 1359,
  "name": "비몽사몽",
  "address": "부산광역시 해운대구 중동  ",
  "lat": 397971.0388,
  "lng": 186770.0754
 },
 {
  "id": 1360,
  "name": "박강화 명품애견",
  "address": "대전광역시 동구 가양동  ",
  "lat": 239852.6154,
  "lng": 316407.6047
 },
 {
  "id": 1361,
  "name": "후니네멍멍이",
  "address": "경상남도 진주시 인사동  ",
  "lat": 297800.7786,
  "lng": 188383.3326
 },
 {
  "id": 1362,
  "name": "몽스토리",
  "address": "울산광역시 남구 야음동  ",
  "lat": 411218.6372,
  "lng": 227354.5988
 },
 {
  "id": 1363,
  "name": "펫더헤븐",
  "address": "울산광역시 중구 옥교동  ",
  "lat": 410472.2073,
  "lng": 230971.9985
 },
 {
  "id": 1364,
  "name": "깎개",
  "address": "광주광역시 광산구 월곡동  ",
  "lat": 182871.9781,
  "lng": 185396.0829
 },
 {
  "id": 1365,
  "name": "토토펫살롱",
  "address": "인천광역시 계양구 갈현동  지하층 ",
  "lat": 175822.7769,
  "lng": 453270.17
 },
 {
  "id": 1366,
  "name": "몽펍피",
  "phone": "053-627-3434",
  "address": "대구광역시 남구 대명동  ",
  "lat": 342476.9184,
  "lng": 262496.0524
 },
 {
  "id": 1367,
  "name": "요술강아지",
  "phone": "031-985-3230",
  "address": "경기도 김포시 구래동  한강신도시 반도유보라 차 ",
  "lat": 167285.3918,
  "lng": 460502.6856
 },
 {
  "id": 1368,
  "name": "Master grooming club",
  "address": "경기도 부천시 옥길동  O&S골드타워 ",
  "lat": 184301.0474,
  "lng": 440483.3322
 },
 {
  "id": 1370,
  "name": "버블버블",
  "address": "경기도 수원시 영통구 이의동  ",
  "lat": 204171.9322,
  "lng": 420854.9511
 },
 {
  "id": 1371,
  "name": "중앙애견미용실",
  "address": "인천광역시 미추홀구 주안동  ",
  "lat": 172201.3064,
  "lng": 439619.509
 },
 {
  "id": 1372,
  "name": "도기야드",
  "address": "대구광역시 북구 동천동  ",
  "lat": 340452.5625,
  "lng": 272631.6096
 },
 {
  "id": 1373,
  "name": "앙볼리 펫살롱",
  "address": "부산광역시 북구 화명동  화명리버파크 호",
  "lat": 382752.3385,
  "lng": 194623.9894
 },
 {
  "id": 1374,
  "name": "주식회사 위드랜드",
  "phone": "02-512-2173",
  "address": "서울특별시 서초구 반포동  ",
  "lat": 201747.8215,
  "lng": 445312.4404
 },
 {
  "id": 1375,
  "name": "개님살롱",
  "phone": "02-704-9887",
  "address": "서울특별시 용산구 원효로가  용산더프라임 주거동 호",
  "lat": 197287.5051,
  "lng": 448662.1535
 },
 {
  "id": 1376,
  "name": "오선생 애견미용실",
  "phone": "055-913-1818",
  "address": "경상남도 양산시 중부동  남부시장 ",
  "lat": 385133.6931,
  "lng": 206722.7331
 },
 {
  "id": 1377,
  "name": "우당탕탕 사고뭉치",
  "address": "충청남도 천안시 동남구 구룡동  ",
  "lat": 212850.7619,
  "lng": 363655.8271
 },
 {
  "id": 1378,
  "name": "멍슐랭 애견샵",
  "address": "경기도 양평군 양평읍 공흥리  ",
  "lat": 244314.2887,
  "lng": 443746.8127
 },
 {
  "id": 1379,
  "name": "댕댕이 미용샵",
  "address": "경상남도 고성군 고성읍 송학리  ",
  "lat": 320846.8671,
  "lng": 165207.6283
 },
 {
  "id": 1380,
  "name": "익산원펫",
  "phone": "063-917-5001",
  "address": "전라북도 익산시 황등면 황등리  ",
  "lat": 194899.6864,
  "lng": 278040.8212
 },
 {
  "id": 1381,
  "name": "동그루밍",
  "address": "충청남도 보령시 동대동  ",
  "lat": 164332.5614,
  "lng": 316023.8091
 },
 {
  "id": 1382,
  "name": "로던트클럽",
  "address": "경기도 김포시 장기동  ",
  "lat": 170975.5514,
  "lng": 460123.1025
 },
 {
  "id": 1383,
  "name": "꽁냥꽁냥",
  "address": "경기도 남양주시 별내동  별내역 파라곤스퀘어 ",
  "lat": 211235.4105,
  "lng": 461067.5068
 },
 {
  "id": 1384,
  "name": "너랑나랑 행복하개",
  "address": "경기도 고양시 일산동구 백석동  동문타워I 호",
  "lat": 181091.0937,
  "lng": 459810.9217
 },
 {
  "id": 1385,
  "name": "안녕펫",
  "phone": "032-469-8855",
  "address": "인천광역시 남동구 만수동  층 ",
  "lat": 175717.1066,
  "lng": 439307.1228
 },
 {
  "id": 1386,
  "name": "24시 센텀동물메디컬센터 연산점",
  "phone": "051-711-8253",
  "address": "부산광역시 연제구 연산동  진도사옥 ",
  "lat": 389473.2815,
  "lng": 189228.0611
 },
 {
  "id": 1387,
  "name": "조양래 동물병원 미용실",
  "address": "부산광역시 남구 대연동  ",
  "lat": 390524.5493,
  "lng": 183746.2824
 },
 {
  "id": 1388,
  "name": "하이 베이비",
  "address": "강원도 태백시 황지동  주공아파트단지 ",
  "lat": 376651.9263,
  "lng": 408424.3647
 },
 {
  "id": 1389,
  "name": "베스띠몽",
  "address": "대구광역시 북구 학정동  ",
  "lat": 341455.0246,
  "lng": 273287.1823
 },
 {
  "id": 1390,
  "name": "장화신은 고양이 & 강아지 미용",
  "address": "서울특별시 구로구 개봉동  호",
  "lat": 186964.5684,
  "lng": 443391.8778
 },
 {
  "id": 1391,
  "name": "까끄롱",
  "address": "울산광역시 중구 우정동  ",
  "lat": 409578.8879,
  "lng": 231285.3311
 },
 {
  "id": 1392,
  "name": "omokjomok(오목조목)",
  "address": "서울특별시 금천구 독산동  블루 ",
  "lat": 191296.7196,
  "lng": 441441.909
 },
 {
  "id": 1393,
  "name": "슈슈댕살롱",
  "address": "경상남도 통영시 무전동  다성빌딩 ",
  "lat": 329923.5404,
  "lng": 152204.2309
 },
 {
  "id": 1394,
  "name": "푸르댕댕",
  "address": "전라북도 전주시 덕진구 인후동가  ",
  "lat": 214657.0739,
  "lng": 259216.2523
 },
 {
  "id": 1395,
  "name": "라인동물의료센터미용실",
  "phone": "02-381-2475",
  "address": "경기도 고양시 덕양구 삼송동  힐스테이트 삼송역 호 ",
  "lat": 190815.458,
  "lng": 461119.3423
 },
 {
  "id": 1396,
  "name": "쿠키네",
  "phone": "064-799-3889",
  "address": "제주특별자치도 제주시 애월읍 신엄리  ",
  "lat": 141064.2366,
  "lng": -2593.064583
 },
 {
  "id": 1397,
  "name": "박준뷰티랩 끼멍끼냥 동탄본점",
  "address": "경기도 화성시 목동  ",
  "lat": 210823.9329,
  "lng": 408951.1585
 },
 {
  "id": 1398,
  "name": "김나현의 묘견생활",
  "address": "경상북도 영천시 완산동  ",
  "lat": 374559.1514,
  "lng": 275548.3347
 },
 {
  "id": 1399,
  "name": "모토모토2",
  "address": "강원도 춘천시 동면 만천리  ",
  "lat": 268460.8457,
  "lng": 487129.563
 },
 {
  "id": 1400,
  "name": "워리워리",
  "address": "경기도 용인시 수지구 성복동  골드프라자 ",
  "lat": 207127.8096,
  "lng": 423202.4884
 },
 {
  "id": 1401,
  "name": "리베애견",
  "phone": "02-2604-0156",
  "address": "서울특별시 양천구 목동  ",
  "lat": 188281.8815,
  "lng": 446999.7215
 },
 {
  "id": 1402,
  "name": "뭉스벨리",
  "address": "경기도 하남시 망월동  미사역마이움푸르지오 동 호",
  "lat": 217113.1515,
  "lng": 451074.4136
 },
 {
  "id": 1403,
  "name": "비달살롱",
  "address": "부산광역시 수영구 광안동  ",
  "lat": 392841.7299,
  "lng": 186492.153
 },
 {
  "id": 1404,
  "name": "독핏웰니스센터",
  "phone": "02-512-8723",
  "address": "서울특별시 강남구 논현동  N ",
  "lat": 201939.7011,
  "lng": 445758.0752
 },
 {
  "id": 1405,
  "name": "마이뷰티독",
  "address": "서울특별시 강서구 화곡동  ",
  "lat": 185727.1819,
  "lng": 447845.1663
 },
 {
  "id": 1406,
  "name": "주식회사 바우라움 서울숲",
  "phone": "02-6454-6180",
  "address": "서울특별시 성동구 행당동  서울숲 더샵 호",
  "lat": 203481.6282,
  "lng": 450468.7733
 },
 {
  "id": 1407,
  "name": "꼬맹이그루밍",
  "address": "경기도 안산시 단원구 원곡동  초지역메이져타운푸르지오에코단지 ",
  "lat": 182498.9191,
  "lng": 424680.2847
 },
 {
  "id": 1408,
  "name": "멍스타일",
  "address": "울산광역시 남구 신정동  ",
  "lat": 409780.4107,
  "lng": 228449.8331
 },
 {
  "id": 1409,
  "name": "헬로펫샵",
  "phone": "042-286-0892",
  "address": "대전광역시 중구 옥계동  ",
  "lat": 240759.9439,
  "lng": 310951.5264
 },
 {
  "id": 1410,
  "name": "도미네로",
  "address": "서울특별시 용산구 이태원동  ",
  "lat": 198869.7314,
  "lng": 448335.1471
 },
 {
  "id": 1411,
  "name": "명품애견",
  "address": "충청북도 청주시 상당구 북문로가  호",
  "lat": 243542.5692,
  "lng": 348606.8694
 },
 {
  "id": 1412,
  "name": "또루밍",
  "address": "경기도 평택시 동삭동  평택센트럴자이 단지 ",
  "lat": 209166.1755,
  "lng": 390957.1209
 },
 {
  "id": 1413,
  "name": "뛰뛰 강아지놀이터",
  "phone": "032-710-6402",
  "address": "인천광역시 부평구 부평동  호",
  "lat": 175152.8106,
  "lng": 443233.1431
 },
 {
  "id": 1414,
  "name": "유독(YouDog)",
  "address": "부산광역시 기장군 정관읍 방곡리  ",
  "lat": 399032.6607,
  "lng": 205023.026
 },
 {
  "id": 1415,
  "name": "홍 애견미용",
  "address": "부산광역시 남구 우암동  ",
  "lat": 388598.0501,
  "lng": 182654.0592
 },
 {
  "id": 1416,
  "name": "신촌애견미용실",
  "phone": "051-203-6741",
  "address": "부산광역시 사하구 하단동  가락타운·단지 ",
  "lat": 378592.9076,
  "lng": 179817.7326
 },
 {
  "id": 1417,
  "name": "그루미뇽",
  "address": "부산광역시 부산진구 전포동  ",
  "lat": 388194.1365,
  "lng": 185637.1511
 },
 {
  "id": 1418,
  "name": "멍케어",
  "address": "충청남도 보령시 동대동  ",
  "lat": 164816.6833,
  "lng": 316826.2011
 },
 {
  "id": 1419,
  "name": "킹렌치",
  "address": "경기도 김포시 통진읍 서암리  ",
  "lat": 164815.6921,
  "lng": 466222.8098
 },
 {
  "id": 1421,
  "name": "러브애견미용",
  "address": "부산광역시 해운대구 중동  해운대 양우내안애팰리스 ",
  "lat": 398373.9636,
  "lng": 186944.2537
 },
 {
  "id": 1422,
  "name": "행복한강아지와고양이",
  "address": "충청남도 천안시 서북구 성거읍 저리  ",
  "lat": 217758.2379,
  "lng": 375141.5314
 },
 {
  "id": 1423,
  "name": "꼬미펫",
  "address": "서울특별시 금천구 시흥동  ",
  "lat": 191462.255,
  "lng": 439979.5299
 },
 {
  "id": 1424,
  "name": "리즈애견미용",
  "address": "서울특별시 강북구 미아동  ",
  "lat": 202910.8343,
  "lng": 456995.8554
 },
 {
  "id": 1425,
  "name": "제주 애견 아가야",
  "address": "제주특별자치도 제주시 노형동  녹색도시 ",
  "lat": 152137.3862,
  "lng": -1521.098316
 },
 {
  "id": 1426,
  "name": "아우어패밀리",
  "address": "인천광역시 계양구 계산동  지산그라띠아아파트 상가동 호",
  "lat": 175405.2966,
  "lng": 449143.1102
 },
 {
  "id": 1427,
  "name": "호이펫샵",
  "address": "서울특별시 강북구 번동  영풍빌딩 ",
  "lat": 203631.9784,
  "lng": 458382.7479
 },
 {
  "id": 1428,
  "name": "사브리나 애견샵",
  "address": "서울특별시 강북구 수유동  ",
  "lat": 200858.9087,
  "lng": 460248.6819
 },
 {
  "id": 1429,
  "name": "강미경 애견 미용실",
  "address": "서울특별시 강북구 수유동  ",
  "lat": 201363.1978,
  "lng": 459059.3273
 },
 {
  "id": 1430,
  "name": "강아지 미용실",
  "address": "세종특별자치시 조치원읍 신흥리  ",
  "lat": 226068.741,
  "lng": 343869.0714
 },
 {
  "id": 1431,
  "name": "오롯이;독",
  "address": "경상남도 밀양시 삼문동  ",
  "lat": 359501.1255,
  "lng": 221869.5016
 },
 {
  "id": 1432,
  "name": "꿈꾸는 강아지",
  "address": "충청남도 홍성군 홍북읍 봉신리  ",
  "lat": 170047.3498,
  "lng": 347780.6574
 },
 {
  "id": 1433,
  "name": "개목욕탕",
  "phone": "02-488-0955",
  "address": "서울특별시 강동구 길동  ",
  "lat": 212380.3306,
  "lng": 448024.5878
 },
 {
  "id": 1434,
  "name": "카페험프리즈",
  "address": "경기도 평택시 팽성읍 신대리  ",
  "lat": 200506.4721,
  "lng": 383116.9654
 },
 {
  "id": 1435,
  "name": "토비네 살롱",
  "address": "대구광역시 달서구 상인동  ",
  "lat": 338858.4331,
  "lng": 258171.7303
 },
 {
  "id": 1436,
  "name": "달봉이네 대연점",
  "address": "부산광역시 남구 대연동  대연힐스테이트푸르지오 ",
  "lat": 391411.4502,
  "lng": 184553.6728
 },
 {
  "id": 1437,
  "name": "코아루 똥강아지",
  "phone": "063-263-9980",
  "address": "전라북도 완주군 봉동읍 둔산리  동인 ",
  "lat": 210952.7398,
  "lng": 273476.6136
 },
 {
  "id": 1438,
  "name": "테디펫",
  "address": "충청남도 천안시 서북구 불당동  불당독서실 ",
  "lat": 209558.0887,
  "lng": 366983.659
 },
 {
  "id": 1439,
  "name": "강아지 분양 프러포즈펫",
  "phone": "032-872-7003",
  "address": "인천광역시 미추홀구 도화동  가야프라자 ",
  "lat": 169920.2112,
  "lng": 440919.4458
 },
 {
  "id": 1440,
  "name": "민주댕이",
  "address": "서울특별시 도봉구 창동  ",
  "lat": 203466.8206,
  "lng": 459467.6138
 },
 {
  "id": 1441,
  "name": "큐티살롱",
  "phone": "063-211-8131",
  "address": "전라북도 전주시 덕진구 팔복동가  ",
  "lat": 209878.3658,
  "lng": 261649.5496
 },
 {
  "id": 1442,
  "name": "이뻐진개",
  "address": "경기도 구리시 갈매동  마들타워 호",
  "lat": 209746.7799,
  "lng": 458211.0258
 },
 {
  "id": 1443,
  "name": "뽀송뽀송강아지",
  "address": "울산광역시 울주군 온양읍 대안리  ",
  "lat": 407401.101,
  "lng": 214579.0344
 },
 {
  "id": 1444,
  "name": "심쿵하개",
  "address": "충청남도 천안시 서북구 불당동  골든스퀘어Ⅱ ",
  "lat": 209736.2451,
  "lng": 368877.7535
 },
 {
  "id": 1445,
  "name": "딱꾸야",
  "address": "경기도 고양시 덕양구 관산동  ",
  "lat": 187279.4439,
  "lng": 467538.1659
 },
 {
  "id": 1446,
  "name": "수지애견",
  "phone": "031-223-5880",
  "address": "경기도 수원시 권선구 세류동  ",
  "lat": 200957.5541,
  "lng": 417113.1381
 },
 {
  "id": 1447,
  "name": "강아지랑나랑",
  "address": "광주광역시 북구 두암동  ",
  "lat": 193826.8362,
  "lng": 185860.8141
 },
 {
  "id": 1448,
  "name": "원 그루밍",
  "address": "부산광역시 금정구 장전동  ",
  "lat": 389447.3294,
  "lng": 193767.1353
 },
 {
  "id": 1449,
  "name": "디아동물병원",
  "phone": "02-572-2772",
  "address": "서울특별시 강남구 개포동  ",
  "lat": 205433.0886,
  "lng": 442288.8465
 },
 {
  "id": 1450,
  "name": "폴앤도기",
  "address": "충청북도 청주시 흥덕구 향정동  ",
  "lat": 237723.0846,
  "lng": 350096.9844
 },
 {
  "id": 1451,
  "name": "뽀dog",
  "address": "서울특별시 금천구 시흥동  남서울힐스테이트 ",
  "lat": 191190.6143,
  "lng": 438410.5221
 },
 {
  "id": 1452,
  "name": "JM애견사업부",
  "address": "경상남도 김해시 관동동  ",
  "lat": 363037.3535,
  "lng": 187866.476
 },
 {
  "id": 1453,
  "name": "이뻐지개",
  "address": "경상북도 안동시 정하동  ",
  "lat": 355247.8628,
  "lng": 340202.5974
 },
 {
  "id": 1454,
  "name": "쫄랭쫄랭",
  "phone": "054-433-0028",
  "address": "경상북도 김천시 평화동  ",
  "lat": 299939.2695,
  "lng": 292262.5219
 },
 {
  "id": 1455,
  "name": "헤이! 멍",
  "address": "강원도 춘천시 퇴계동  ",
  "lat": 263838.6018,
  "lng": 484567.0749
 },
 {
  "id": 1456,
  "name": "베시시버블독",
  "phone": "031-430-4115",
  "address": "경기도 시흥시 정왕동  호",
  "lat": 174036.5526,
  "lng": 427524.1003
 },
 {
  "id": 1457,
  "name": "정들개",
  "address": "인천광역시 서구 석남동  ",
  "lat": 170824.0645,
  "lng": 445512.4852
 },
 {
  "id": 1458,
  "name": "써니펫살롱",
  "address": "인천광역시 미추홀구 주안동  ",
  "lat": 171742.5492,
  "lng": 439993.7222
 },
 {
  "id": 1459,
  "name": "나에개, 반하냥",
  "address": "인천광역시 미추홀구 도화동  와이지타워 ",
  "lat": 169974.4775,
  "lng": 441239.5812
 },
 {
  "id": 1460,
  "name": "댕바라기",
  "address": "서울특별시 광진구 구의동  선앙빌라 호",
  "lat": 208191.4279,
  "lng": 448785.2956
 },
 {
  "id": 1461,
  "name": "펫미리애견샵",
  "address": "경상남도 밀양시 내일동  ",
  "lat": 358870.8059,
  "lng": 223122.3763
 },
 {
  "id": 1462,
  "name": "트리밍아유",
  "address": "경기도 안산시 단원구 원곡동  단지내  상가 호",
  "lat": 182498.9191,
  "lng": 424680.2847
 },
 {
  "id": 1463,
  "name": "디어독",
  "address": "대구광역시 달서구 상인동  ",
  "lat": 339900.0247,
  "lng": 258246.7938
 },
 {
  "id": 1464,
  "name": "핸즈퍼피",
  "address": "대구광역시 수성구 시지동  층 ",
  "lat": 352973.5861,
  "lng": 261033.034
 },
 {
  "id": 1465,
  "name": "루루펫",
  "address": "경기도 안산시 상록구 건건동  ",
  "lat": 191354.455,
  "lng": 422774.5424
 },
 {
  "id": 1466,
  "name": "다둥이네",
  "address": "경기도 평택시 합정동  ",
  "lat": 208033.0082,
  "lng": 387741.7249
 },
 {
  "id": 1467,
  "name": "애견시대",
  "phone": "053-764-2138",
  "address": "대구광역시 수성구 수성동가  ",
  "lat": 345662.9579,
  "lng": 262654.3034
 },
 {
  "id": 1468,
  "name": "예뻐질개",
  "address": "서울특별시 강서구 등촌동  미주진로아파트 ",
  "lat": 186414.5129,
  "lng": 450851.4601
 },
 {
  "id": 1469,
  "name": "야옹아 멍멍해봐 탕정점",
  "phone": "041-533-0279",
  "address": "충청남도 아산시 탕정면 매곡리  ",
  "lat": 207166.1876,
  "lng": 365635.529
 },
 {
  "id": 1470,
  "name": "우리 강아지",
  "address": "강원도 동해시 부곡동  ",
  "lat": 385836.6225,
  "lng": 450243.502
 },
 {
  "id": 1471,
  "name": "그루라움",
  "address": "강원도 춘천시 효자동  ",
  "lat": 264758.7322,
  "lng": 486226.5777
 },
 {
  "id": 1472,
  "name": "개스트하우스",
  "phone": "055-646-9595",
  "address": "경상남도 통영시 무전동  수아지오아파트 호",
  "lat": 330806.4801,
  "lng": 152090.033
 },
 {
  "id": 1473,
  "name": "그루밍 베베",
  "address": "경기도 안산시 상록구 본오동  ",
  "lat": 187506.095,
  "lng": 420927.625
 },
 {
  "id": 1474,
  "name": "웰니스동물병원",
  "phone": "02-899-8779",
  "address": "경기도 광명시 소하동  층호",
  "lat": 189714.4498,
  "lng": 438279.9378
 },
 {
  "id": 1475,
  "name": "하나동물병원",
  "phone": "032-553-6678",
  "address": "인천광역시 계양구 작전동  작전역 서해그랑블 상가동 호 ",
  "lat": 175193.7014,
  "lng": 447267.7443
 },
 {
  "id": 1476,
  "name": "펫츠하우스",
  "address": "경기도 양주시 만송동  ",
  "lat": 207801.1591,
  "lng": 476002.3299
 },
 {
  "id": 1477,
  "name": "펫포유",
  "address": "경기도 광주시 오포읍 신현리  ",
  "lat": 212914.3281,
  "lng": 428647.432
 },
 {
  "id": 1478,
  "name": "바비몽",
  "address": "경상남도 양산시 물금읍 물금리  ",
  "lat": 380919.6472,
  "lng": 202740.8266
 },
 {
  "id": 1479,
  "name": "슬기로운 동물병원",
  "address": "경기도 안성시 공도읍 양기리  ",
  "lat": 217772.3429,
  "lng": 389702.0037
 },
 {
  "id": 1480,
  "name": "노블레스",
  "address": "경기도 시흥시 과림동  ",
  "lat": 184692.9464,
  "lng": 439066.6832
 },
 {
  "id": 1481,
  "name": "도그앤시저스",
  "phone": "070-8832-5678",
  "address": "경기도 남양주시 진접읍 금곡리  아트프라자 ",
  "lat": 217307.8208,
  "lng": 468385.9253
 },
 {
  "id": 1482,
  "name": "로렌드 멍",
  "address": "경기도 부천시 도당동  ",
  "lat": 180444.5771,
  "lng": 445048.8538
 },
 {
  "id": 1483,
  "name": "포블포블",
  "address": "부산광역시 강서구 명지동  ",
  "lat": 373884.3873,
  "lng": 178884.2282
 },
 {
  "id": 1484,
  "name": "cafe WAL",
  "phone": "031-239-4856",
  "address": "경기도 수원시 권선구 곡반정동  ",
  "lat": 202586.1593,
  "lng": 415182.9624
 },
 {
  "id": 1485,
  "name": "쥬티펫",
  "phone": "042-638-4949",
  "address": "대전광역시 중구 산성동  ",
  "lat": 234552.8027,
  "lng": 311631.3807
 },
 {
  "id": 1486,
  "name": "우리집첫째",
  "address": "부산광역시 남구 대연동  한양빌딩 ",
  "lat": 391537.2677,
  "lng": 183878.1076
 }
]