[
 {
  "id": 1,
  "name": "서울 PC",
  "phone": "02-761-7122",
  "address": "서울특별시 영등포구 여의서로 120 (한강파출소) (여의도동, 인천해양경찰서 한강파출소)",
  "lat": 126.918743,
  "lng": 37.5362464
 },
 {
  "id": 2,
  "name": "부산 동백 PC",
  "phone": "051-664-2823",
  "address": "부산광역시 해운대구 마린시티1로 178 (우동, 부산해양경찰서 광안리파출소 동백출장소)",
  "lat": 129.151289,
  "lng": 35.1575155
 },
 {
  "id": 3,
  "name": "부산 청학 PC",
  "phone": "051-664-2452",
  "address": "부산광역시 영도구 해양로 53 (청학동, 부산해양경찰서 영도파출소 청학출장소)",
  "lat": 129.061326,
  "lng": 35.097548
 },
 {
  "id": 4,
  "name": "인천 PC",
  "phone": "032-650-2451",
  "address": "인천광역시 연수구 옥골로 69 (옥련동, 인천해양경찰서)",
  "lat": 126.648721,
  "lng": 37.4314131
 },
 {
  "id": 5,
  "name": "울산 PC",
  "phone": "052-230-2249",
  "address": "울산광역시 남구 신선로 20 (선암동, 울산해양경찰서)",
  "lat": 129.313688,
  "lng": 35.520363
 },
 {
  "id": 6,
  "name": "경기(가평)",
  "phone": "031-584-5700",
  "address": "경기도 가평군 청평면 호반로 162 (경기조종면허시험장) (청평리)",
  "lat": 127.427659,
  "lng": 37.726107
 },
 {
  "id": 7,
  "name": "경기(여주)",
  "phone": "031-880-4082",
  "address": "경기도 여주시 강변북로 163 (현암동,여주일반조종면허시험장)",
  "lat": 127.628814,
  "lng": 37.3070793
 },
 {
  "id": 8,
  "name": "경기(김포) PC",
  "phone": "032-650-2421",
  "address": "경기도 김포시 고촌읍 아라육로270번길 74 (전호리, 아라 김포여객터미널)",
  "lat": 126.787082,
  "lng": 37.5979878
 },
 {
  "id": 9,
  "name": "경기(안산) PC",
  "phone": "031-8046-2351",
  "address": "경기도 안산시 단원구 대부황금로 1569 (대부북동, 평택해양경찰서 안산파출소)",
  "lat": 126.577179,
  "lng": 37.2930613
 },
 {
  "id": 10,
  "name": "경기(평택) PC",
  "phone": "031-8046-2351",
  "address": "경기도 평택시 포승읍 서동대로 437-27 (신영리, 평택해양경찰서)",
  "lat": 126.883519,
  "lng": 36.9368263
 },
 {
  "id": 11,
  "name": "강원(춘천)",
  "phone": "033-252-9097",
  "address": "강원도 춘천시 고산배터길 27-6 (사농동, 강원조종면허시험장)",
  "lat": 127.714868,
  "lng": 37.9128877
 },
 {
  "id": 12,
  "name": "강원(동해) PC",
  "phone": "033-741-2451",
  "address": "강원도 동해시 임항로 29 (부곡동, 동해해양경찰서)",
  "lat": 129.105961,
  "lng": 37.5392114
 },
 {
  "id": 13,
  "name": "강원(속초) PC",
  "phone": "033-252-9097",
  "address": "강원도 속초시 동명동 53-23 속초해양경찰서",
  "lat": 128.597637,
  "lng": 38.2122813
 },
 {
  "id": 14,
  "name": "충북(충주)",
  "phone": "043-856-3119",
  "address": "충청북도 충주시 동량면 미라실로 763 (충북조종면허시험장)",
  "lat": 128.054167,
  "lng": 37.0066177
 },
 {
  "id": 15,
  "name": "충남(보령) PC",
  "phone": "041-402-2349",
  "address": "충청남도 보령시 성주산로 49 (명천동, 보령해양경찰서)",
  "lat": 126.606272,
  "lng": 36.3342482
 },
 {
  "id": 16,
  "name": "충남(태안) PC",
  "phone": "041-950-2551",
  "address": "충청남도 태안군 태안읍 동백로 92-13 (장산리, 태안해양경찰서)",
  "lat": 126.284487,
  "lng": 36.7575057
 },
 {
  "id": 17,
  "name": "전북(군산) PC",
  "phone": "063-539-2249",
  "address": "전라북도 군산시 군산창길 21 (금동, 군산해양경찰서)",
  "lat": 126.707386,
  "lng": 35.9912906
 },
 {
  "id": 18,
  "name": "전북(부안) PC",
  "phone": "063-928-2349",
  "address": "전라북도 부안군 행안면 부안로 2531 (신기리, 부안해양경찰서)",
  "lat": 126.71883,
  "lng": 35.7198987
 },
 {
  "id": 19,
  "name": "전남(목포) PC",
  "phone": "061-241-2351",
  "address": "전라남도 목포시 청호로 231 (산정동, 목포해양경찰서)",
  "lat": 126.367769,
  "lng": 34.8095717
 },
 {
  "id": 20,
  "name": "전남(여수) PC",
  "phone": "061-840-2549",
  "address": "전라남도 여수시 문수로 111 해양경찰서 민원동1층 (문수동, 여수해양경찰서)",
  "lat": 127.706493,
  "lng": 34.7554748
 },
 {
  "id": 21,
  "name": "전남(완도) PC",
  "phone": "061-550-2249",
  "address": "전라남도 완도군 완도읍 중앙길 93 (군내리, 완도해양경찰서)",
  "lat": 126.761788,
  "lng": 34.3080901
 },
 {
  "id": 22,
  "name": "전남(고흥) PC",
  "phone": "061-840-2125",
  "address": "전라남도 고흥군 풍양면 천마로 1418-17 (풍남리, 해양경찰서)",
  "lat": 127.244382,
  "lng": 34.5189177
 },
 {
  "id": 23,
  "name": "경북(안동)",
  "phone": "054-821-2020",
  "address": "경상북도 안동시 석주로 497 2층 (석동동, 안동임하호수운관리사무소)",
  "lat": 128.781255,
  "lng": 36.5761079
 },
 {
  "id": 24,
  "name": "경북(포항) PC",
  "phone": "054-750-2351",
  "address": "경상북도 포항시 남구 희망대로 790 (대도동, 남구청)",
  "lat": 129.359383,
  "lng": 36.0082089
 },
 {
  "id": 25,
  "name": "경남(사천) PC",
  "phone": "055-830-2349",
  "address": "경상남도 사천시 용현면 시청1길 59 (덕곡리, 사천해양경찰서)",
  "lat": 128.061029,
  "lng": 35.0030554
 },
 {
  "id": 26,
  "name": "경남(합천)",
  "phone": "055-933-1973",
  "address": "경남 합천군 봉산면 서부로 4270-8 (서부경남조종면허시험장)",
  "lat": 128.0397,
  "lng": 35.6224111
 },
 {
  "id": 27,
  "name": "경남(창원) PC",
  "phone": "055-981-2349",
  "address": "경상남도 창원시 마산합포구 신포동1가 86-2 창원해양경찰서",
  "lat": 128.574504,
  "lng": 35.1959954
 },
 {
  "id": 28,
  "name": "경남(통영) PC",
  "phone": "055-647-2551",
  "address": "경상남도 통영시 광도면 죽림2로 45 (죽림리, 통영해양경찰서)",
  "lat": 128.417694,
  "lng": 34.8808079
 },
 {
  "id": 29,
  "name": "제주 PC",
  "phone": "064-766-2251",
  "address": "제주특별자치도 제주시 임항로 154 (건입동, 제주해양경찰서,교통레저계)",
  "lat": 126.540213,
  "lng": 33.5198547
 }
]